NO,시군구,번지,도로조건,계약면적(㎡),전월세구분,계약년월,계약일,보증금(만원),월세금(만원),건축년도,도로명,계약기간,계약구분,갱신요구권 사용,종전계약 보증금(만원),종전계약 월세(만원),주택유형,구_추출,상세주소,주소,위도,경도,행정동
1,서울특별시 광진구 자양동,6**,8m미만,33.0,전세,202411,28,"6,000",0,1977.0,뚝섬로44길,202502~202702,신규,-,,,다가구,광진구,광진구 뚝섬로44길,광진구 뚝섬로44길,37.5317388547446,127.07602060503,자양2동
2,서울특별시 도봉구 방학동,6**,8m미만,72.76,전세,202411,28,"15,000",0,1988.0,시루봉로22길,202411~202611,신규,-,,,다가구,도봉구,도봉구 시루봉로22길,도봉구 시루봉로22길,37.6686629659284,127.037895671958,방학2동
3,서울특별시 마포구 연남동,4**,8m미만,29.93,월세,202411,28,"1,000",48,1996.0,성미산로18길,202411~202611,갱신,-,"1,000",48.0,다가구,마포구,마포구 성미산로18길,마포구 성미산로18길,37.560878552738,126.91850757639,연남동
4,서울특별시 강서구 방화동,2**,25m미만,55.0,월세,202411,28,"1,000",50,1987.0,초원로,202411~202611,신규,-,,,다가구,강서구,강서구 초원로,강서구 초원로,37.5677908631317,126.810913479175,방화2동
5,서울특별시 동작구 상도동,2**,8m미만,18.08,전세,202411,28,"6,000",0,1985.0,성대로6가길,202411~202611,신규,-,,,단독,동작구,동작구 성대로6가길,동작구 성대로6가길,37.4960637671055,126.934469138783,상도3동
6,서울특별시 구로구 고척동,2**,8m미만,68.88,전세,202411,28,"15,000",0,1991.0,고척로41가길,202412~202612,갱신,-,"14,000",0.0,단독,구로구,구로구 고척로41가길,구로구 고척로41가길,37.5045988762646,126.850635003486,고척2동
7,서울특별시 서대문구 북아현동,1**,8m미만,26.4,월세,202411,28,200,40,1990.0,북아현로11가길,202411~202511,갱신,-,200,37.0,단독,서대문구,서대문구 북아현로11가길,서대문구 북아현로11가길,37.5630966172346,126.954281891962,충현동
8,서울특별시 광진구 구의동,5*,8m미만,40.03,전세,202411,28,"18,000",0,1970.0,자양로,202501~202701,신규,-,,,단독,광진구,광진구 자양로,광진구 자양로,37.5423709029766,127.084161029776,구의1동
9,서울특별시 영등포구 도림동,2**,8m미만,33.0,월세,202411,28,500,35,2006.0,도신로19길,202412~202612,신규,-,,,다가구,영등포구,영등포구 도신로19길,영등포구 도신로19길,37.5075393612879,126.90003490804,도림동
10,서울특별시 중랑구 면목동,3**,8m미만,40.0,월세,202411,28,500,40,1992.0,면목로72가길,202411~202611,신규,-,,,다가구,중랑구,중랑구 면목로72가길,중랑구 면목로72가길,37.5870752209836,127.089004442835,면목본동
11,서울특별시 용산구 이태원동,2**,8m미만,35.0,월세,202411,28,500,66,1990.0,회나무로28가길,202501~202701,갱신,-,500,63.0,다가구,용산구,용산구 회나무로28가길,용산구 회나무로28가길,37.5385415440144,126.991909253199,이태원2동
12,서울특별시 동대문구 전농동,2**,8m미만,46.94,전세,202411,28,"40,000",0,1968.0,전농로17길,202411~202711,신규,-,,,단독,동대문구,동대문구 전농로17길,동대문구 전농로17길,37.5790010645205,127.055607918873,전농1동
13,서울특별시 노원구 공릉동,5**,8m미만,30.0,월세,202411,28,"15,000",13,2017.0,동일로178길,-,-,-,,,다가구,노원구,노원구 동일로178길,노원구 동일로178길,37.6213946758502,127.076222699576,공릉1동
14,서울특별시 서대문구 홍제동,2**,8m미만,39.08,전세,202411,28,"13,000",0,1992.0,통일로40안길,202411~202611,갱신,-,"13,000",0.0,다가구,서대문구,서대문구 통일로40안길,서대문구 통일로40안길,37.5909894049935,126.944196337925,홍제3동
15,서울특별시 용산구 청파동3가,1**,8m미만,15.0,월세,202411,28,"1,000",58,1990.0,청파로43길,202501~202701,신규,-,,,다가구,용산구,용산구 청파로43길,용산구 청파로43길,37.5436648016171,126.968658856357,청파동
16,서울특별시 용산구 후암동,4**,8m미만,54.0,월세,202411,28,"6,000",55,1971.0,소월로2나길,202501~202701,신규,-,,,단독,용산구,용산구 소월로2나길,용산구 소월로2나길,37.5536342084401,126.977517864876,후암동
17,서울특별시 영등포구 양평동1가,2**,12m미만,25.34,월세,202411,28,"5,000",60,2024.0,영등포로13길,202411~202611,신규,-,,,다가구,영등포구,영등포구 영등포로13길,영등포구 영등포로13길,37.5237790097879,126.889189966165,양평1동
18,서울특별시 용산구 보광동,2**,8m미만,78.14,전세,202411,28,"20,000",0,1989.0,보광로7길,202411~202611,신규,-,,,단독,용산구,용산구 보광로7길,용산구 보광로7길,37.525665160361,126.999324510606,보광동
19,서울특별시 성북구 정릉동,7**,8m미만,17.0,월세,202411,28,"1,000",55,2020.0,솔샘로7길,202502~202602,신규,-,,,단독,성북구,성북구 솔샘로7길,성북구 솔샘로7길,37.6107055568623,127.004458023618,정릉3동
20,서울특별시 영등포구 도림동,2**,8m미만,26.0,월세,202411,28,500,40,1992.0,도림로113길,202411~202611,신규,-,,,단독,영등포구,영등포구 도림로113길,영등포구 도림로113길,37.5088735697907,126.898242256552,도림동
21,서울특별시 서대문구 연희동,3**,25m미만,40.0,전세,202411,28,"14,000",0,1991.0,연희로,202501~202701,신규,-,,,단독,서대문구,서대문구 연희로,서대문구 연희로,37.5754792244879,126.935307276944,연희동
22,서울특별시 서대문구 홍은동,3**,25m이상,51.95,전세,202411,28,"6,500",0,,가좌로,-,-,-,,,단독,서대문구,서대문구 가좌로,서대문구 가좌로,37.5800980914044,126.928307542437,홍은2동
23,서울특별시 광진구 군자동,4**,12m미만,26.0,월세,202411,28,500,52,2016.0,동일로60길,202411~202611,신규,-,,,다가구,광진구,광진구 동일로60길,광진구 동일로60길,37.558083743051,127.074977270054,군자동
24,서울특별시 용산구 청파동1가,1**,8m미만,83.3,월세,202411,28,500,55,1955.0,청파로57길,202412~202612,신규,-,,,단독,용산구,용산구 청파로57길,용산구 청파로57길,37.5468974215832,126.969057977756,청파동
25,서울특별시 강서구 방화동,4**,12m미만,40.0,월세,202411,28,"2,000",70,2001.0,방화대로45길,202501~202701,신규,-,,,다가구,강서구,강서구 방화대로45길,강서구 방화대로45길,37.5742835201276,126.814150141458,방화1동
26,서울특별시 은평구 불광동,3**,8m미만,38.17,월세,202411,28,"1,000",55,1995.0,통일로82나길,202412~202612,신규,-,,,다가구,은평구,은평구 통일로82나길,은평구 통일로82나길,37.6224981674254,126.921385393682,불광2동
27,서울특별시 구로구 구로동,5**,12m미만,36.0,월세,202411,28,"5,500",15,1995.0,구로중앙로22길,202411~202511,신규,-,,,다가구,구로구,구로구 구로중앙로22길,구로구 구로중앙로22길,37.4978204389812,126.889367430782,구로5동
28,서울특별시 광진구 화양동,3*,8m미만,20.0,월세,202411,28,"5,000",40,2010.0,아차산로23길,202412~202611,신규,-,,,단독,광진구,광진구 아차산로23길,광진구 아차산로23길,37.5438293587254,127.066811929491,화양동
29,서울특별시 송파구 가락동,1**,12m미만,25.0,월세,202411,28,"1,000",70,2013.0,동남로9길,202412~202612,신규,-,,,다가구,송파구,송파구 동남로9길,송파구 동남로9길,37.49476795514,127.126824640594,가락2동
30,서울특별시 관악구 신림동,1***,8m미만,31.2,전세,202411,28,"23,500",0,2013.0,남부순환로166길,202401~202601,신규,-,,,단독,관악구,관악구 남부순환로166길,관악구 남부순환로166길,37.4813145563827,126.923686690089,신원동
31,서울특별시 서초구 서초동,1***,8m미만,23.1,월세,202411,28,"1,000",75,2002.0,서초대로54길,202502~202602,신규,-,,,다가구,서초구,서초구 서초대로54길,서초구 서초대로54길,37.4931049057323,127.016125775818,서초1동
32,서울특별시 송파구 마천동,1**,12m미만,67.89,전세,202411,28,"11,000",0,1990.0,마천로41길,202412~202612,갱신,-,"11,000",0.0,다가구,송파구,송파구 마천로41길,송파구 마천로41길,37.4971349391685,127.149586590462,마천2동
33,서울특별시 관악구 신림동,8**,25m미만,49.58,전세,202411,28,"3,000",0,1984.0,원신길,202411~202611,갱신,-,"3,000",0.0,단독,관악구,관악구 원신길,관악구 원신길,37.466017250927,126.930164533419,삼성동
34,서울특별시 강동구 성내동,3**,8m미만,49.5,월세,202411,28,"5,000",45,1997.0,천호대로174길,202501~202701,신규,-,,,다가구,강동구,강동구 천호대로174길,강동구 천호대로174길,37.5334479862953,127.134360860362,성내3동
35,서울특별시 송파구 문정동,2*,12m미만,36.0,전세,202411,28,"12,500",0,1988.0,동남로6가길,202412~202612,신규,-,,,단독,송파구,송파구 동남로6가길,송파구 동남로6가길,37.4892280625796,127.125523863714,문정1동
36,서울특별시 강동구 천호동,3**,8m미만,21.5,월세,202411,28,100,35,1990.0,천중로5길,202411~202502,신규,-,,,단독,강동구,강동구 천중로5길,강동구 천중로5길,37.5466113863803,127.12383062269,천호2동
37,서울특별시 강동구 길동,1**,8m미만,33.0,전세,202411,28,"15,000",0,1998.0,천호대로197길,202412~202612,신규,-,,,다가구,강동구,강동구 천호대로197길,강동구 천호대로197길,37.5382285086047,127.146994633057,길동
38,서울특별시 서초구 방배동,9**,8m미만,29.0,월세,202411,28,500,40,1995.0,방배로15길,202411~202512,신규,-,,,다가구,서초구,서초구 방배로15길,서초구 방배로15길,37.4836199444949,126.993842144831,방배1동
39,서울특별시 관악구 봉천동,1***,8m미만,13.2,월세,202411,28,"1,000",50,2015.0,행운2길,202412~202611,신규,-,,,단독,관악구,관악구 행운2길,관악구 행운2길,37.4789221729798,126.960903578868,행운동
40,서울특별시 관악구 봉천동,1**,8m미만,36.96,월세,202411,28,"1,000",58,1991.0,인헌13길,202411~202611,신규,-,,,다가구,관악구,관악구 인헌13길,관악구 인헌13길,37.472330943823,126.968504510443,인헌동
41,서울특별시 관악구 봉천동,9**,8m미만,30.0,월세,202411,28,"15,000",65,,봉천로33가길,202412~202612,신규,-,,,다가구,관악구,관악구 봉천로33가길,관악구 봉천로33가길,37.4842444024046,126.944990969499,은천동
42,서울특별시 관악구 봉천동,8**,8m미만,21.0,월세,202411,28,"3,000",85,,청룡5길,202411~202511,신규,-,,,다가구,관악구,관악구 청룡5길,관악구 청룡5길,37.4802747411598,126.946767902141,청룡동
43,서울특별시 서초구 양재동,3**,12m미만,41.28,전세,202411,27,"25,250",0,1997.0,동산로8길,202411~202611,갱신,-,"24,150",0.0,다가구,서초구,서초구 동산로8길,서초구 동산로8길,37.4702043117111,127.045758239855,양재2동
44,서울특별시 서초구 양재동,1*,8m미만,59.0,전세,202411,27,"35,000",0,2000.0,바우뫼로39길,202412~202612,신규,-,,,다가구,서초구,서초구 바우뫼로39길,서초구 바우뫼로39길,37.4817790567561,127.039743833675,양재1동
45,서울특별시 관악구 신림동,1***,8m미만,48.0,월세,202411,27,"5,000",55,1997.0,남부순환로168라길,202501~202701,신규,-,,,단독,관악구,관악구 남부순환로168라길,관악구 남부순환로168라길,37.480157975995,126.925165217224,신원동
46,서울특별시 강동구 상일동,4**,25m미만,20.0,월세,202411,27,"1,000",50,1989.0,천호대로219길,202411~202611,신규,-,,,다가구,강동구,강동구 천호대로219길,강동구 천호대로219길,37.5481637480153,127.17081725072,상일동
47,서울특별시 강동구 고덕동,2**,12m미만,31.14,전세,202411,27,"10,000",0,1988.0,아리수로78길,202412~202612,신규,-,,,단독,강동구,강동구 아리수로78길,강동구 아리수로78길,37.561469883888,127.163797610033,고덕2동
48,서울특별시 관악구 신림동,8*,8m미만,36.72,월세,202411,27,"12,000",30,1997.0,신림로56길,202412~202612,갱신,-,"12,000",20.0,단독,관악구,관악구 신림로56길,관악구 신림로56길,37.4811865136932,126.931461815491,서원동
49,서울특별시 관악구 신림동,1***,8m미만,17.0,월세,202411,27,"3,000",20,2006.0,봉천로8길,202412~202612,신규,-,,,단독,관악구,관악구 봉천로8길,관악구 봉천로8길,37.4884555177119,126.926998773588,신림동
50,서울특별시 강남구 역삼동,6**,8m미만,31.23,월세,202411,27,500,75,1996.0,봉은사로52길,202411~202601,신규,-,,,다가구,강남구,강남구 봉은사로52길,강남구 봉은사로52길,37.5096761233366,127.043067257499,역삼1동
51,서울특별시 동작구 신대방동,6**,8m미만,16.0,월세,202411,27,"4,000",25,2009.0,신대방1가길,202412~202611,신규,-,,,단독,동작구,동작구 신대방1가길,동작구 신대방1가길,37.4867986156353,126.907631774586,신대방1동
53,서울특별시 관악구 신림동,9*,8m미만,20.0,전세,202411,27,"20,000",0,2002.0,신림로50길,202501~202701,신규,-,,,단독,관악구,관악구 신림로50길,관악구 신림로50길,37.4797860050134,126.932277120393,서원동
54,서울특별시 관악구 봉천동,9**,25m이상,17.32,전세,202411,27,"11,000",0,2017.0,봉천로,202412~202612,갱신,-,"11,000",0.0,단독,관악구,관악구 봉천로,관악구 봉천로,37.4864054907977,126.934924651248,보라매동
55,서울특별시 관악구 봉천동,1**,8m미만,20.83,전세,202411,27,"12,000",0,1996.0,인헌15길,202501~202701,신규,-,,,다가구,관악구,관악구 인헌15길,관악구 인헌15길,37.471464344069,126.968138716083,인헌동
56,서울특별시 관악구 봉천동,8**,8m미만,18.0,월세,202411,27,"1,000",60,2016.0,봉천로45길,202411~202611,신규,-,,,단독,관악구,관악구 봉천로45길,관악구 봉천로45길,37.483270304225,126.949385591929,중앙동
57,서울특별시 관악구 봉천동,6**,8m미만,23.0,전세,202411,27,"13,000",0,2022.0,봉천로13나길,202412~202611,신규,-,,,단독,관악구,관악구 봉천로13나길,관악구 봉천로13나길,37.4898827911352,126.932272302805,보라매동
59,서울특별시 강남구 개포동,1***,8m미만,45.97,월세,202411,27,"12,000",9,1996.0,개포로26길,202412~202612,신규,-,,,다가구,강남구,강남구 개포로26길,강남구 개포로26길,37.478017713607,127.049284712804,개포4동
60,서울특별시 강동구 암사동,5**,8m미만,20.0,월세,202411,27,"1,000",50,2011.0,상암로6길,202412~202612,신규,-,,,다가구,강동구,강동구 상암로6길,강동구 상암로6길,37.5491919066192,127.126576964368,암사2동
61,서울특별시 강동구 암사동,4**,8m미만,29.91,전세,202411,27,"9,000",0,1984.0,고덕로20가길,202412~202612,신규,-,,,단독,강동구,강동구 고덕로20가길,강동구 고덕로20가길,37.5540231313432,127.135676963978,암사1동
62,서울특별시 동작구 사당동,2**,12m미만,61.22,월세,202411,27,"1,000",40,1997.0,사당로2차길,202412~202612,신규,-,,,다가구,동작구,동작구 사당로2차길,동작구 사당로2차길,37.4867862514444,126.966419091177,사당5동
63,서울특별시 동작구 사당동,2**,8m미만,93.79,월세,202411,27,"3,000",50,2018.0,사당로16다길,202412~202612,신규,-,,,단독,동작구,동작구 사당로16다길,동작구 사당로16다길,37.4833101454262,126.970046850249,사당5동
64,서울특별시 강동구 천호동,1**,8m미만,28.0,전세,202411,27,"17,000",0,2017.0,진황도로33길,202412~202612,신규,-,,,단독,강동구,강동구 진황도로33길,강동구 진황도로33길,37.5383439662713,127.134487431226,천호3동
65,서울특별시 강동구 천호동,2**,8m미만,24.0,월세,202411,27,300,30,1993.0,구천면로40길,202412~202612,신규,-,,,다가구,강동구,강동구 구천면로40길,강동구 구천면로40길,37.5452563725385,127.13485493741,천호1동
66,서울특별시 송파구 풍납동,2**,8m미만,80.0,월세,202411,27,"10,000",40,1978.0,풍성로6길,202310~202510,신규,-,,,단독,송파구,송파구 풍성로6길,송파구 풍성로6길,37.5339246180294,127.114242007566,풍납2동
67,서울특별시 강남구 일원동,6**,12m미만,20.0,월세,202411,27,50,50,1987.0,개포로128길,202411~202412,신규,-,,,다가구,강남구,강남구 개포로128길,강남구 개포로128길,37.4935604534909,127.083846710881,일원1동
68,서울특별시 중구 신당동,1**,8m미만,60.48,전세,202411,27,"35,500",0,1988.0,왕십리로,202411~202611,갱신,사용,"35,000",0.0,단독,중구,중구 왕십리로,중구 왕십리로,37.5650551040901,127.025407059562,신당5동
69,서울특별시 성북구 삼선동1가,2**,8m미만,52.98,월세,202411,27,"10,000",25,,삼선교로8길,202412~202612,신규,-,,,단독,성북구,성북구 삼선교로8길,성북구 삼선교로8길,37.5861440738358,127.008135976028,삼선동
70,서울특별시 마포구 신수동,1**,8m미만,11.75,전세,202411,27,"11,000",0,1991.0,창전로2길,202412~202612,신규,-,,,다가구,마포구,마포구 창전로2길,마포구 창전로2길,37.5489148657356,126.933826413214,신수동
71,서울특별시 성동구 마장동,3**,8m미만,15.0,월세,202411,27,500,40,1988.0,마조로14가길,202412~202611,신규,-,,,다가구,성동구,성동구 마조로14가길,성동구 마조로14가길,37.5639919613639,127.043508466794,마장동
72,서울특별시 성북구 하월곡동,7*,8m미만,48.33,전세,202411,27,"10,000",0,1991.0,오패산로17길,202412~202612,신규,-,,,다가구,성북구,성북구 오패산로17길,성북구 오패산로17길,37.6082202341737,127.034909980665,월곡1동
73,서울특별시 종로구 명륜1가,9*,8m미만,15.0,월세,202411,27,"8,000",10,2013.0,혜화로3길,202412~202512,갱신,-,"8,000",10.0,단독,종로구,종로구 혜화로3길,종로구 혜화로3길,37.5863601333136,126.998565274335,혜화동
74,서울특별시 금천구 시흥동,8**,8m미만,20.59,월세,202411,27,200,25,1987.0,독산로18길,202411~202611,신규,-,,,단독,금천구,금천구 독산로18길,금천구 독산로18길,37.4535853003236,126.906941961612,시흥4동
75,서울특별시 동작구 노량진동,2**,8m미만,17.34,월세,202411,27,200,35,1992.0,노량진로8나길,202411~202611,신규,-,,,단독,동작구,동작구 노량진로8나길,동작구 노량진로8나길,37.5096396855849,126.936985263112,노량진2동
76,서울특별시 송파구 송파동,1**,8m미만,29.92,전세,202411,27,"6,300",0,1997.0,가락로23길,202501~202701,갱신,사용,"12,000",0.0,다가구,송파구,송파구 가락로23길,송파구 가락로23길,37.5041301995661,127.112046528991,송파1동
77,서울특별시 성동구 용답동,1**,8m미만,42.06,월세,202411,27,"14,000",5,1993.0,용답중앙11나길,202501~202701,신규,-,,,다가구,성동구,성동구 용답중앙11나길,성동구 용답중앙11나길,37.566575756224,127.051955994604,용답동
78,서울특별시 성북구 석관동,3**,8m미만,56.07,전세,202411,27,"22,000",0,2018.0,화랑로18길,-,-,-,,,다가구,성북구,성북구 화랑로18길,성북구 화랑로18길,37.6056591403365,127.050231311658,월곡2동
79,서울특별시 은평구 역촌동,7*,8m미만,66.7,월세,202411,27,"3,000",50,1990.0,갈현로7길,202412~202612,신규,-,,,다가구,은평구,은평구 갈현로7길,은평구 갈현로7길,37.6045386987135,126.907616282009,역촌동
80,서울특별시 구로구 고척동,2**,12m미만,49.25,전세,202411,27,"15,000",0,2003.0,중앙로15길,202412~202612,갱신,-,"14,000",0.0,단독,구로구,구로구 중앙로15길,구로구 중앙로15길,37.5070094617323,126.855004460085,고척2동
81,서울특별시 동대문구 답십리동,9*,8m미만,12.0,월세,202411,27,500,47,2018.0,전농로11길,202501~202701,신규,-,,,단독,동대문구,동대문구 전농로11길,동대문구 전농로11길,37.574308819002,127.057029414935,답십리1동
82,서울특별시 광진구 능동,2**,8m미만,30.0,전세,202411,27,"7,000",0,1991.0,능동로32길,202412~202612,신규,-,,,다가구,광진구,광진구 능동로32길,광진구 능동로32길,37.553733348905,127.082953485648,능동
83,서울특별시 성동구 성수동1가,2**,8m미만,37.8,전세,202411,27,"16,000",0,1987.0,둘레5길,202411~202612,신규,-,,,단독,성동구,성동구 둘레5길,성동구 둘레5길,37.5378149537924,127.048015047513,성수1가1동
84,서울특별시 강서구 화곡동,3**,8m미만,53.86,전세,202411,27,"16,000",0,1993.0,강서로17다길,202412~202612,신규,-,,,다가구,강서구,강서구 강서로17다길,강서구 강서로17다길,37.5333227181772,126.842164095765,화곡1동
85,서울특별시 강서구 화곡동,3**,8m미만,35.12,월세,202411,27,"4,000",15,1996.0,가로공원로,-,-,-,,,단독,강서구,강서구 가로공원로,강서구 가로공원로,37.5374140932581,126.838979125395,화곡1동
86,서울특별시 구로구 가리봉동,1**,12m미만,30.0,월세,202411,27,"3,500",15,2006.0,구로동로2길,202411~202611,신규,-,,,다가구,구로구,구로구 구로동로2길,구로구 구로동로2길,37.4839769631681,126.887603900471,가리봉동
87,서울특별시 동작구 상도동,3**,8m미만,16.5,월세,202411,27,"10,000",15,2020.0,상도로15바길,202412~202612,신규,-,,,다가구,동작구,동작구 상도로15바길,동작구 상도로15바길,37.5045526143954,126.934505148855,상도2동
88,서울특별시 동작구 상도1동,7**,8m미만,39.0,전세,202411,27,"7,000",0,1993.0,상도로38나길,202501~202701,신규,-,,,다가구,동작구,동작구 상도로38나길,동작구 상도로38나길,37.5024127900824,126.94723215684,상도1동
89,서울특별시 성동구 하왕십리동,9**,8m미만,220.86,전세,202411,27,"20,400",0,1989.0,왕십리로31가길,202412~202612,갱신,사용,"19,845",0.0,다가구,성동구,성동구 왕십리로31가길,성동구 왕십리로31가길,37.5640313040013,127.028922958699,왕십리2동
90,서울특별시 서대문구 연희동,1**,8m미만,33.0,월세,202411,27,500,55,1997.0,연희로10길,202411~202511,신규,-,,,다가구,서대문구,서대문구 연희로10길,서대문구 연희로10길,37.5651932346339,126.932643236469,연희동
91,서울특별시 종로구 이화동,9*,8m미만,15.0,월세,202411,27,"1,000",40,2012.0,율곡로17길,202501~202701,신규,-,,,단독,종로구,종로구 율곡로17길,종로구 율곡로17길,37.5763739635335,127.004982605862,종로5·6가동
92,서울특별시 서대문구 남가좌동,3**,8m미만,78.78,전세,202411,27,"20,000",0,2001.0,증가로8길,202411~202611,갱신,-,"17,500",0.0,다가구,서대문구,서대문구 증가로8길,서대문구 증가로8길,37.5788690243158,126.92593767629,홍은2동
93,서울특별시 구로구 구로동,5**,8m미만,51.0,월세,202411,27,"2,000",65,1995.0,새말로8길,202501~202701,신규,-,,,다가구,구로구,구로구 새말로8길,구로구 새말로8길,37.5023282660612,126.884755403598,구로5동
94,서울특별시 광진구 자양동,5*,12m미만,28.0,월세,202411,27,"2,000",50,1990.0,동일로4길,202412~202612,갱신,-,"1,000",35.0,단독,광진구,광진구 동일로4길,광진구 동일로4길,37.5360320974028,127.062889737774,자양4동
95,서울특별시 성북구 동소문동6가,2**,12m미만,41.44,전세,202411,27,"15,000",0,1992.0,동소문로15길,202412~202612,신규,-,,,다가구,성북구,성북구 동소문로15길,성북구 동소문로15길,37.5943376153135,127.014605598745,동선동
96,서울특별시 동작구 노량진동,8*,8m미만,13.2,월세,202411,27,300,33,1968.0,장승배기로26길,202411~202511,신규,-,,,단독,동작구,동작구 장승배기로26길,동작구 장승배기로26길,37.5114920097496,126.941438762093,노량진1동
97,서울특별시 은평구 신사동,3**,8m미만,38.76,월세,202411,27,"1,000",45,1990.0,은평터널로7길,202411~202611,신규,-,,,단독,은평구,은평구 은평터널로7길,은평구 은평터널로7길,37.5924398925818,126.903853343902,신사2동
98,서울특별시 송파구 송파동,9*,8m미만,17.0,월세,202411,27,"5,000",45,1997.0,송파대로,-,-,-,,,다가구,송파구,송파구 송파대로,송파구 송파대로,37.5008392832178,127.111182460215,석촌동
99,서울특별시 동대문구 휘경동,2**,8m미만,33.0,월세,202411,27,500,40,1991.0,망우로14가길,202411~202611,신규,-,,,단독,동대문구,동대문구 망우로14가길,동대문구 망우로14가길,37.5871217956764,127.059332938983,휘경2동
100,서울특별시 도봉구 창동,2**,12m미만,20.0,전세,202411,27,"7,000",0,2010.0,해등로16길,202412~202612,신규,-,,,다가구,도봉구,도봉구 해등로16길,도봉구 해등로16길,37.6551234368698,127.042984197771,창5동
101,서울특별시 금천구 시흥동,9**,12m미만,26.18,월세,202411,27,"2,000",94,2021.0,독산로1길,-,-,-,,,다가구,금천구,금천구 독산로1길,금천구 독산로1길,37.449353844926,126.903537027318,시흥1동
102,서울특별시 영등포구 도림동,3*,8m미만,45.12,월세,202411,27,"1,000",50,1986.0,도신로35길,202411~202604,신규,-,,,단독,영등포구,영등포구 도신로35길,영등포구 도신로35길,37.5103083213872,126.908242421687,도림동
103,서울특별시 마포구 신공덕동,1**,12m미만,20.0,월세,202411,27,"1,000",40,1993.0,백범로39길,202411~202511,신규,-,,,다가구,마포구,마포구 백범로39길,마포구 백범로39길,37.5422257197127,126.956427466947,공덕동
104,서울특별시 동대문구 장안동,3**,12m미만,31.62,전세,202411,27,"9,920",0,1984.0,답십리로72길,202503~202703,갱신,-,"12,000",0.0,다가구,동대문구,동대문구 답십리로72길,동대문구 답십리로72길,37.5687569060489,127.072880191704,장안2동
105,서울특별시 은평구 응암동,1**,8m미만,54.67,월세,202411,26,"2,000",60,1991.0,응암로34길,202412~202612,신규,-,,,다가구,은평구,은평구 응암로34길,은평구 응암로34길,37.5979000111581,126.922636851613,응암1동
106,서울특별시 광진구 자양동,7**,8m미만,51.76,월세,202411,26,"5,000",80,1985.0,자양번영로10길,202501~202701,신규,-,,,단독,광진구,광진구 자양번영로10길,광진구 자양번영로10길,37.5361194009016,127.0773147814,자양1동
107,서울특별시 중랑구 망우동,4**,8m미만,18.0,월세,202411,26,200,30,1991.0,용마공원로5가길,202411~202611,신규,-,,,다가구,중랑구,중랑구 용마공원로5가길,중랑구 용마공원로5가길,37.5929014174455,127.102422343737,망우3동
108,서울특별시 종로구 연건동,2**,8m미만,57.0,월세,202411,26,"16,000",65,1992.0,율곡로13가길,202412~202612,신규,-,,,다가구,종로구,종로구 율곡로13가길,종로구 율곡로13가길,37.5764395709793,126.999979283463,이화동
109,서울특별시 마포구 서교동,3**,8m미만,35.0,월세,202411,26,"1,000",60,1991.0,양화로15안길,202411~202611,신규,-,,,다가구,마포구,마포구 양화로15안길,마포구 양화로15안길,37.5540891542423,126.918601998657,서교동
110,서울특별시 마포구 서교동,3**,8m미만,26.0,월세,202411,26,"8,000",32,1997.0,와우산로29가길,202501~202701,신규,-,,,다가구,마포구,마포구 와우산로29가길,마포구 와우산로29가길,37.5538613485003,126.926954374513,서교동
111,서울특별시 광진구 자양동,6**,8m미만,38.46,전세,202411,26,"21,000",0,2016.0,뚝섬로52나길,202502~202702,신규,-,,,다가구,광진구,광진구 뚝섬로52나길,광진구 뚝섬로52나길,37.5304905221296,127.080896274908,자양2동
112,서울특별시 성북구 장위동,7*,8m미만,53.06,월세,202411,26,"3,000",60,1971.0,장월로24길,202412~202612,신규,-,,,단독,성북구,성북구 장월로24길,성북구 장월로24길,37.6156258944476,127.049989513114,장위2동
113,서울특별시 마포구 합정동,3**,8m미만,43.0,전세,202411,26,"15,000",0,1994.0,독막로,202412~202612,신규,-,,,다가구,마포구,마포구 독막로,마포구 독막로,37.5474735237527,126.932212423234,서강동
114,서울특별시 광진구 중곡동,7*,8m미만,35.43,전세,202411,26,"3,500",0,1993.0,긴고랑로46길,202411~202611,갱신,-,"3,000",0.0,다가구,광진구,광진구 긴고랑로46길,광진구 긴고랑로46길,37.5601237054954,127.095431465032,중곡4동
115,서울특별시 성북구 하월곡동,9*,8m미만,27.0,월세,202411,26,100,35,,종암로,202411~202611,신규,-,,,단독,성북구,성북구 종암로,성북구 종암로,37.5998864997602,127.034073654539,종암동
116,서울특별시 마포구 망원동,4**,8m미만,21.0,월세,202411,26,"5,000",30,1993.0,희우정로20길,202412~202612,신규,-,,,다가구,마포구,마포구 희우정로20길,마포구 희우정로20길,37.5558176914289,126.902510413936,망원1동
117,서울특별시 도봉구 도봉동,6**,25m미만,61.2,전세,202411,26,"15,500",0,2002.0,도봉로154길,202412~202612,갱신,-,"12,000",0.0,다가구,도봉구,도봉구 도봉로154길,도봉구 도봉로154길,37.6712349571902,127.04516423504,도봉2동
118,서울특별시 종로구 부암동,9*,8m미만,76.66,월세,202411,26,"5,000",100,1968.0,백석동길,202411~202611,신규,-,,,다가구,종로구,종로구 백석동길,종로구 백석동길,37.5956009329315,126.967844221301,부암동
119,서울특별시 마포구 성산동,1**,8m미만,18.0,월세,202411,26,"3,000",45,2018.0,모래내로7길,202412~202612,신규,-,,,단독,마포구,마포구 모래내로7길,마포구 모래내로7길,37.5674070999111,126.910450064498,성산2동
120,서울특별시 용산구 청파동3가,1**,8m미만,15.0,월세,202411,26,"5,000",20,,청파로43다길,202412~202512,신규,-,,,다가구,용산구,용산구 청파로43다길,용산구 청파로43다길,37.5427403885843,126.969393274259,청파동
121,서울특별시 은평구 역촌동,2*,8m미만,17.0,월세,202411,26,"3,000",30,2018.0,진흥로5길,202412~202612,신규,-,,,단독,은평구,은평구 진흥로5길,은평구 진흥로5길,37.6027591024821,126.919874758152,역촌동
122,서울특별시 동대문구 용두동,3*,8m미만,18.55,월세,202411,26,"2,000",30,2017.0,고산자로28길,202412~202612,신규,-,,,단독,동대문구,동대문구 고산자로28길,동대문구 고산자로28길,37.5748179262883,127.040573306624,용신동
123,서울특별시 중랑구 면목동,4**,8m미만,40.0,월세,202411,26,"1,300",50,1991.0,면목로44가길,202411~202611,갱신,-,"1,300",45.0,다가구,중랑구,중랑구 면목로44가길,중랑구 면목로44가길,37.5825699371496,127.089901623942,면목3·8동
124,서울특별시 중랑구 면목동,5**,8m미만,59.54,월세,202411,26,"4,500",35,1979.0,용마산로58길,202411~202611,갱신,-,"8,500",0.0,단독,중랑구,중랑구 용마산로58길,중랑구 용마산로58길,37.5784399242837,127.092632105728,면목7동
125,서울특별시 양천구 신정동,1**,8m미만,23.79,월세,202411,26,"1,000",60,2015.0,신목로4길,202411~202611,신규,-,,,다가구,양천구,양천구 신목로4길,양천구 신목로4길,37.5200667680754,126.875680576628,신정2동
126,서울특별시 양천구 신정동,8**,8m미만,17.77,월세,202411,26,"1,000",48,2011.0,신정중앙로21길,202411~202511,신규,-,,,단독,양천구,양천구 신정중앙로21길,양천구 신정중앙로21길,37.5271067635691,126.861063074348,신정4동
127,서울특별시 동작구 노량진동,3**,12m미만,21.0,월세,202411,26,"5,000",81,2023.0,장승배기로16가길,-,-,-,,,단독,동작구,동작구 장승배기로16가길,동작구 장승배기로16가길,37.5065569910948,126.940286740439,노량진2동
128,서울특별시 종로구 창신동,2*,8m미만,43.14,전세,202411,26,"21,000",0,1990.0,지봉로11길,202412~202612,신규,-,,,다가구,종로구,종로구 지봉로11길,종로구 지봉로11길,37.5767949710521,127.014192253932,창신3동
129,서울특별시 종로구 창신동,2*,8m미만,48.93,전세,202411,26,"16,000",0,1974.0,창신11길,202411~202611,신규,-,,,다가구,종로구,종로구 창신11길,종로구 창신11길,37.5781504318297,127.0107308458,창신2동
130,서울특별시 중랑구 면목동,1**,8m미만,33.4,전세,202411,26,"8,300",0,1991.0,망우로30길,202501~202701,신규,-,,,다가구,중랑구,중랑구 망우로30길,중랑구 망우로30길,37.5922119353206,127.074890793038,상봉2동
132,서울특별시 중랑구 면목동,5**,12m미만,39.82,월세,202411,26,300,100,2017.0,겸재로40길,202411~202502,신규,-,,,다가구,중랑구,중랑구 겸재로40길,중랑구 겸재로40길,37.5864995363276,127.087491926439,면목본동
133,서울특별시 양천구 목동,7**,25m미만,64.8,전세,202411,26,"12,000",0,2004.0,목동중앙서로,202411~202611,신규,-,,,다가구,양천구,양천구 목동중앙서로,양천구 목동중앙서로,37.5327817609574,126.86672975045,목4동
134,서울특별시 양천구 신월동,4**,8m미만,29.0,월세,202411,26,500,40,1982.0,오목로13길,202412~202612,신규,-,,,단독,양천구,양천구 오목로13길,양천구 오목로13길,37.5250061053763,126.845147362669,신월2동
135,서울특별시 양천구 신월동,1**,8m미만,38.0,전세,202411,26,"5,000",0,1991.0,남부순환로40길,-,-,-,,,다가구,양천구,양천구 남부순환로40길,양천구 남부순환로40길,37.5332323019254,126.826584276485,신월3동
136,서울특별시 중랑구 면목동,4**,8m미만,39.65,월세,202411,26,300,35,1994.0,면목로56길,202412~202612,신규,-,,,다가구,중랑구,중랑구 면목로56길,중랑구 면목로56길,37.5839255150619,127.09103315396,면목3·8동
137,서울특별시 동작구 상도1동,6**,8m미만,21.0,전세,202411,26,"18,000",0,2002.0,상도로37길,202412~202701,신규,-,,,다가구,동작구,동작구 상도로37길,동작구 상도로37길,37.5004392297797,126.950787294403,상도1동
138,서울특별시 중랑구 상봉동,1**,8m미만,50.0,월세,202411,26,500,60,1997.0,봉우재로19길,202412~202612,갱신,-,"2,000",50.0,다가구,중랑구,중랑구 봉우재로19길,중랑구 봉우재로19길,37.5930095065427,127.081009872357,상봉2동
139,서울특별시 영등포구 대림동,9**,8m미만,36.0,전세,202411,26,"8,000",0,1987.0,대림로8길,202412~202612,신규,-,,,다가구,영등포구,영등포구 대림로8길,영등포구 대림로8길,37.4913697598448,126.905998069431,대림1동
140,서울특별시 영등포구 대림동,9**,8m미만,19.0,월세,202411,26,"3,000",45,2023.0,디지털로,202411~202611,신규,-,,,단독,영등포구,영등포구 디지털로,영등포구 디지털로,37.4921709427061,126.902997790458,대림1동
141,서울특별시 성동구 마장동,7**,8m미만,18.0,월세,202411,26,"3,000",30,,마조로19길,202502~202702,신규,-,,,다가구,성동구,성동구 마조로19길,성동구 마조로19길,37.5639933314362,127.038250512221,마장동
142,서울특별시 동작구 상도1동,6**,12m미만,20.0,월세,202411,26,"2,000",58,2018.0,상도로47길,202502~202602,신규,-,,,단독,동작구,동작구 상도로47길,동작구 상도로47길,37.5019282089609,126.952045602345,상도1동
143,서울특별시 강서구 등촌동,5**,8m미만,30.45,월세,202411,26,"1,000",90,2015.0,등촌로39라길,202412~202612,신규,-,,,다가구,강서구,강서구 등촌로39라길,강서구 등촌로39라길,37.5466301778338,126.860995049537,등촌2동
144,서울특별시 성동구 행당동,*,25m미만,18.0,월세,202411,26,"1,500",59,2020.0,마조로,-,-,-,,,단독,성동구,성동구 마조로,성동구 마조로,37.5615612419343,127.041538241953,사근동
145,서울특별시 강서구 화곡동,8**,8m미만,59.4,월세,202411,26,"9,000",45,1994.0,등촌로13다길,202412~202612,갱신,-,"9,000",40.0,다가구,강서구,강서구 등촌로13다길,강서구 등촌로13다길,37.5344488453945,126.85863954017,화곡4동
147,서울특별시 동대문구 이문동,2**,8m미만,33.17,월세,202411,26,"1,000",50,1991.0,신이문로2길,202412~202612,신규,-,,,다가구,동대문구,동대문구 신이문로2길,동대문구 신이문로2길,37.6016161046713,127.062536888322,이문2동
148,서울특별시 강북구 수유동,1**,8m미만,194.24,월세,202411,26,100,35,2014.0,한천로139가길,202411~202511,신규,-,,,단독,강북구,강북구 한천로139가길,강북구 한천로139가길,37.6408584283548,127.024398624687,수유3동
149,서울특별시 광진구 군자동,4*,8m미만,70.0,월세,202411,26,"5,000",140,2016.0,면목로3길,202501~202701,신규,-,,,다가구,광진구,광진구 면목로3길,광진구 면목로3길,37.556119879083,127.074487634099,군자동
150,서울특별시 용산구 원효로3가,2**,12m미만,35.0,전세,202411,26,"4,319",0,1993.0,원효로19길,202411~202511,갱신,-,"1,474",12.0,다가구,용산구,용산구 원효로19길,용산구 원효로19길,37.5332327352245,126.95402327477,원효로2동
151,서울특별시 구로구 오류동,1**,8m미만,38.49,월세,202411,26,"2,000",45,1991.0,오류로8길,202412~202612,신규,-,,,다가구,구로구,구로구 오류로8길,구로구 오류로8길,37.4928595186762,126.844371092745,오류2동
152,서울특별시 강북구 수유동,2*,8m미만,15.0,월세,202411,26,150,36,2018.0,노해로9길,202411~202505,신규,-,,,단독,강북구,강북구 노해로9길,강북구 노해로9길,37.6382127747216,127.019574517156,수유3동
153,서울특별시 광진구 중곡동,7*,25m미만,30.39,월세,202411,26,"14,330",3,2013.0,긴고랑로44길,202412~202612,갱신,-,"14,330",0.0,다가구,광진구,광진구 긴고랑로44길,광진구 긴고랑로44길,37.5591144325401,127.094955279288,중곡4동
154,서울특별시 광진구 중곡동,1**,8m미만,33.0,전세,202411,26,"8,000",0,1990.0,천호대로123길,202501~202701,신규,-,,,단독,광진구,광진구 천호대로123길,광진구 천호대로123길,37.5568711921461,127.086675117981,중곡2동
155,서울특별시 중구 신당동,1**,8m미만,36.55,전세,202411,26,"10,000",0,1996.0,퇴계로80길,202412~202612,신규,-,,,다가구,중구,중구 퇴계로80길,중구 퇴계로80길,37.5637730366199,127.017735333186,신당5동
156,서울특별시 은평구 대조동,1**,12m미만,50.36,전세,202411,26,"13,000",0,1991.0,통일로73길,202412~202612,신규,-,,,다가구,은평구,은평구 통일로73길,은평구 통일로73길,37.6151616048385,126.922750131315,대조동
157,서울특별시 금천구 시흥동,8**,8m미만,17.0,월세,202411,26,300,27,1992.0,독산로25길,202411~202611,신규,-,,,다가구,금천구,금천구 독산로25길,금천구 독산로25길,37.4555548452211,126.904372438498,시흥1동
158,서울특별시 동대문구 장안동,1**,8m미만,25.94,전세,202411,26,"10,000",0,1974.0,한천로40길,202412~202612,신규,-,,,다가구,동대문구,동대문구 한천로40길,동대문구 한천로40길,37.5775153810167,127.068680833219,장안2동
159,서울특별시 동대문구 장안동,1**,8m미만,33.0,월세,202411,26,"1,000",25,1993.0,한천로30길,202411~202611,신규,-,,,다가구,동대문구,동대문구 한천로30길,동대문구 한천로30길,37.5740712441832,127.06805121289,장안2동
160,서울특별시 금천구 시흥동,8**,8m미만,46.26,전세,202411,26,"13,000",0,1985.0,독산로39길,202412~202612,갱신,-,"12,000",0.0,단독,금천구,금천구 독산로39길,금천구 독산로39길,37.4584083032213,126.903979653485,시흥1동
161,서울특별시 노원구 상계동,1**,8m미만,40.0,월세,202411,26,500,43,1994.0,덕릉로115가길,202411~202611,신규,-,,,다가구,노원구,노원구 덕릉로115가길,노원구 덕릉로115가길,37.667568171629,127.078606128926,상계3·4동
162,서울특별시 동대문구 휘경동,2**,8m미만,33.0,전세,202411,26,"15,000",0,1965.0,망우로12나길,202501~202701,신규,-,,,단독,동대문구,동대문구 망우로12나길,동대문구 망우로12나길,37.5873750705874,127.058417969298,휘경2동
163,서울특별시 중랑구 신내동,2**,8m미만,17.05,전세,202411,26,"7,000",0,2017.0,용마산로139다길,202501~202701,신규,-,,,다가구,중랑구,중랑구 용마산로139다길,중랑구 용마산로139다길,37.6179545243862,127.101473080961,신내1동
164,서울특별시 동작구 상도동,3**,8m미만,16.5,월세,202411,26,30,20,2017.0,상도로13가길,-,-,-,,,단독,동작구,동작구 상도로13가길,동작구 상도로13가길,37.5004548394745,126.930865750778,상도3동
165,서울특별시 동대문구 전농동,3*,8m미만,34.0,월세,202411,26,500,30,1988.0,전농로16길,202501~202701,신규,-,,,다가구,동대문구,동대문구 전농로16길,동대문구 전농로16길,37.5782421248303,127.060086875317,전농2동
166,서울특별시 서대문구 홍제동,*,8m미만,38.05,월세,202411,26,"2,000",33,1985.0,문화촌길,202411~202611,신규,-,,,단독,서대문구,서대문구 문화촌길,서대문구 문화촌길,37.5934064717018,126.949970210073,홍제3동
167,서울특별시 서대문구 창천동,2**,8m미만,16.5,월세,202411,26,500,60,2012.0,신촌로3길,202412~202612,신규,-,,,다가구,서대문구,서대문구 신촌로3길,서대문구 신촌로3길,37.5594594706518,126.929701659304,신촌동
168,서울특별시 강북구 미아동,2**,8m미만,27.78,월세,202411,26,"9,000",20,1993.0,도봉로65길,202501~202701,신규,-,,,다가구,강북구,강북구 도봉로65길,강북구 도봉로65길,37.6294506996398,127.022545962687,미아동
170,서울특별시 도봉구 방학동,6**,8m미만,45.79,전세,202411,26,"12,000",0,1992.0,도봉로145나길,202412~202612,신규,-,,,다가구,도봉구,도봉구 도봉로145나길,도봉구 도봉로145나길,37.6655245262591,127.04179060165,방학1동
171,서울특별시 영등포구 도림동,1**,8m미만,33.96,전세,202411,26,"10,000",0,1991.0,도림로108나길,202412~202612,신규,-,,,다가구,영등포구,영등포구 도림로108나길,영등포구 도림로108나길,37.5083775437555,126.902815652392,도림동
172,서울특별시 노원구 공릉동,6**,25m미만,67.88,월세,202411,26,"15,000",50,2005.0,동일로173가길,202501~202701,신규,-,,,다가구,노원구,노원구 동일로173가길,노원구 동일로173가길,37.6216600912858,127.072677052781,공릉1동
174,서울특별시 노원구 공릉동,3**,8m미만,16.0,월세,202411,26,"1,000",43,,동일로190길,202412~202602,신규,-,,,단독,노원구,노원구 동일로190길,노원구 동일로190길,37.6257705726904,127.074983468055,공릉1동
175,서울특별시 은평구 구산동,*,8m미만,45.47,월세,202411,26,"1,000",50,1997.0,연서로15길,202305~202505,신규,-,,,다가구,은평구,은평구 연서로15길,은평구 연서로15길,37.6113090699212,126.914148099618,구산동
176,서울특별시 금천구 독산동,9**,12m미만,18.0,월세,202411,26,"2,500",72,2007.0,독산로108길,202411~202611,신규,-,,,단독,금천구,금천구 독산로108길,금천구 독산로108길,37.4797316054412,126.906890666596,독산3동
177,서울특별시 성북구 동소문동1가,1**,8m미만,26.14,월세,202411,26,0,33,1997.0,동소문로,202411~202505,신규,-,,,다가구,성북구,성북구 동소문로,성북구 동소문로,37.596777909164,127.02137996202,동선동
178,서울특별시 광진구 자양동,5*,8m미만,41.34,월세,202411,26,"15,000",20,1975.0,뚝섬로,202501~202701,신규,-,,,단독,광진구,광진구 뚝섬로,광진구 뚝섬로,37.5329795402639,127.076428260951,자양1동
179,서울특별시 동작구 사당동,4**,8m미만,63.24,월세,202411,26,"14,500",30,1987.0,남부순환로265길,202412~202612,신규,-,,,단독,동작구,동작구 남부순환로265길,동작구 남부순환로265길,37.4783134482675,126.974383221271,사당1동
180,서울특별시 관악구 신림동,1***,8m미만,26.44,전세,202411,26,"15,000",0,2022.0,관천로,-,-,-,,,단독,관악구,관악구 관천로,관악구 관천로,37.4854688543028,126.924275165506,신사동
181,서울특별시 송파구 문정동,3*,12m미만,31.0,월세,202411,26,"1,000",37,1988.0,동남로6길,202412~202512,갱신,-,"1,000",32.0,단독,송파구,송파구 동남로6길,송파구 동남로6길,37.4883719075679,127.125201080452,문정1동
182,서울특별시 관악구 봉천동,1***,8m미만,53.38,전세,202411,26,"8,000",0,2015.0,청룡9길,202411~202611,신규,-,,,단독,관악구,관악구 청룡9길,관악구 청룡9길,37.4787459827224,126.946532470141,청룡동
183,서울특별시 관악구 봉천동,1***,25m미만,25.0,월세,202411,26,100,35,1985.0,인헌길,202411~202502,신규,-,,,단독,관악구,관악구 인헌길,관악구 인헌길,37.4717550735839,126.967056167185,인헌동
184,서울특별시 관악구 봉천동,6**,25m미만,35.0,전세,202411,26,"8,000",0,1994.0,국회단지길,202404~202604,신규,-,,,다가구,관악구,관악구 국회단지길,관악구 국회단지길,37.488748476562,126.94166186123,은천동
185,서울특별시 관악구 봉천동,1**,8m미만,21.5,전세,202411,26,"12,000",0,2019.0,행운5길,202412~202612,신규,-,,,단독,관악구,관악구 행운5길,관악구 행운5길,37.4818069076446,126.95922694647,행운동
186,서울특별시 송파구 삼전동,1*,8m미만,24.07,전세,202411,26,"13,000",0,1996.0,백제고분로23길,202501~202701,신규,-,,,다가구,송파구,송파구 백제고분로23길,송파구 백제고분로23길,37.5054331913343,127.091608316403,삼전동
187,서울특별시 관악구 봉천동,1***,8m미만,20.0,전세,202411,26,"12,000",0,2017.0,남부순환로206길,-,-,-,,,단독,관악구,관악구 남부순환로206길,관악구 남부순환로206길,37.4813784441598,126.941733167323,청룡동
188,서울특별시 강남구 대치동,9**,8m미만,30.0,월세,202411,26,"1,000",55,,역삼로67길,202411~202511,신규,-,,,다가구,강남구,강남구 역삼로67길,강남구 역삼로67길,37.5025861091364,127.052844868723,대치4동
189,서울특별시 관악구 봉천동,1***,12m미만,18.0,전세,202411,26,"10,000",0,1995.0,낙성대역8길,-,-,-,,,단독,관악구,관악구 낙성대역8길,관악구 낙성대역8길,37.473856989777,126.962079791678,낙성대동
190,서울특별시 관악구 봉천동,1**,8m미만,15.0,월세,202411,26,300,30,2011.0,남부순환로239길,202411~202511,신규,-,,,단독,관악구,관악구 남부순환로239길,관악구 남부순환로239길,37.4793926837892,126.962020126111,행운동
191,서울특별시 관악구 봉천동,*,8m미만,25.62,전세,202411,26,"6,500",0,1992.0,청림3바길,-,-,-,,,다가구,관악구,관악구 청림3바길,관악구 청림3바길,37.4909165588381,126.959250942753,청림동
192,서울특별시 송파구 방이동,1**,8m미만,65.0,월세,202411,26,"11,000",53,1996.0,올림픽로32길,-,-,-,,,다가구,송파구,송파구 올림픽로32길,송파구 올림픽로32길,37.5132816858588,127.10985615487,방이2동
194,서울특별시 송파구 가락동,1**,12m미만,62.0,월세,202411,26,"24,000",20,1990.0,동남로13길,202411~202611,신규,-,,,단독,송파구,송파구 동남로13길,송파구 동남로13길,37.4944278069755,127.127176878587,가락2동
195,서울특별시 송파구 가락동,1**,8m미만,12.24,월세,202411,26,"1,000",40,1993.0,중대로12길,202411~202611,신규,-,,,다가구,송파구,송파구 중대로12길,송파구 중대로12길,37.4929515217323,127.124285322015,가락본동
196,서울특별시 강동구 천호동,2*,8m미만,42.51,월세,202411,26,"13,000",15,1985.0,상암로41가길,202501~202701,신규,-,,,단독,강동구,강동구 상암로41가길,강동구 상암로41가길,37.5468558914296,127.13906998411,천호1동
197,서울특별시 관악구 신림동,3**,8m미만,41.51,전세,202411,26,"18,000",0,1989.0,양산길,-,-,-,,,다가구,관악구,관악구 양산길,관악구 양산길,37.4737185569915,126.932033207032,서림동
198,서울특별시 서초구 반포동,7**,8m미만,28.39,전세,202411,26,"10,000",0,1995.0,사평대로57길,202501~202701,신규,-,,,다가구,서초구,서초구 사평대로57길,서초구 사평대로57길,37.5073465884742,127.022122723587,반포1동
199,서울특별시 강남구 율현동,3**,8m미만,60.0,월세,202411,26,"5,000",148,2024.0,밤고개로24길,202411~202611,신규,-,,,다가구,강남구,강남구 밤고개로24길,강남구 밤고개로24길,37.4721971560599,127.106177680728,세곡동
200,서울특별시 강동구 성내동,2**,8m미만,23.0,월세,202411,26,"8,000",35,2010.0,풍성로41길,202412~202612,신규,-,,,다가구,강동구,강동구 풍성로41길,강동구 풍성로41길,37.5334509334532,127.1285565556,성내2동
201,서울특별시 강동구 길동,3**,12m미만,52.14,월세,202411,26,"14,323",28,,양재대로117길,-,-,-,,,다가구,강동구,강동구 양재대로117길,강동구 양재대로117길,37.5400126537049,127.139351689267,길동
202,서울특별시 강남구 삼성동,1**,8m미만,28.47,전세,202411,26,"17,500",0,1995.0,삼성로107길,202411~202611,신규,-,,,다가구,강남구,강남구 삼성로107길,강남구 삼성로107길,37.5112052373063,127.052385285232,삼성2동
203,서울특별시 동작구 사당동,1***,8m미만,27.0,전세,202411,26,"22,000",0,2021.0,동작대로5길,202412~202612,신규,-,,,다가구,동작구,동작구 동작대로5길,동작구 동작대로5길,37.4790324442113,126.981016202546,사당1동
204,서울특별시 동작구 사당동,1***,8m미만,30.0,월세,202411,26,"8,000",5,1990.0,동작대로11길,202411~202611,신규,-,,,단독,동작구,동작구 동작대로11길,동작구 동작대로11길,37.4812767436932,126.978756894214,사당1동
205,서울특별시 동작구 사당동,3**,12m미만,17.29,전세,202411,26,"10,000",0,2008.0,사당로16길,202412~202612,갱신,-,"10,000",0.0,다가구,동작구,동작구 사당로16길,동작구 사당로16길,37.4803458594393,126.971641953278,사당4동
206,서울특별시 동작구 사당동,2**,8m미만,54.34,월세,202411,26,"15,000",60,1975.0,사당로9라길,202501~202701,신규,-,,,단독,동작구,동작구 사당로9라길,동작구 사당로9라길,37.4870202279798,126.970406062472,사당3동
207,서울특별시 관악구 신림동,9*,8m미만,39.2,월세,202411,26,"3,000",90,,신림로38길,202411~202611,신규,-,,,다가구,관악구,관악구 신림로38길,관악구 신림로38길,37.4765556301427,126.938049194672,서림동
208,서울특별시 관악구 신림동,6**,8m미만,30.0,월세,202411,26,"10,000",15,2019.0,난곡로24가길,202411~202611,신규,-,,,단독,관악구,관악구 난곡로24가길,관악구 난곡로24가길,37.4694979411396,126.922496937393,난곡동
209,서울특별시 관악구 신림동,1***,12m미만,20.7,월세,202411,26,500,45,2007.0,조원로8길,202411~202611,신규,-,,,단독,관악구,관악구 조원로8길,관악구 조원로8길,37.4827854686099,126.905734645682,조원동
210,서울특별시 관악구 신림동,7**,8m미만,34.91,월세,202411,26,"8,000",15,1992.0,미성3길,202412~202612,신규,-,,,다가구,관악구,관악구 미성3길,관악구 미성3길,37.4735475496715,126.917209829383,미성동
211,서울특별시 관악구 신림동,6**,8m미만,66.78,전세,202411,26,"18,000",0,1990.0,난향2길,202501~202701,갱신,-,"17,000",0.0,다가구,관악구,관악구 난향2길,관악구 난향2길,37.4634012168253,126.918301175296,난향동
212,서울특별시 관악구 신림동,1*,8m미만,16.5,월세,202411,26,"14,000",3,2019.0,남부순환로184길,202501~202701,신규,-,,,단독,관악구,관악구 남부순환로184길,관악구 남부순환로184길,37.4834885912217,126.932086656488,서원동
213,서울특별시 강동구 둔촌동,5*,8m미만,33.67,월세,202411,26,"10,000",30,,명일로,202501~202701,갱신,-,"10,000",25.0,단독,강동구,강동구 명일로,강동구 명일로,37.5367081421064,127.145774888017,길동
214,서울특별시 강동구 암사동,4**,8m미만,30.0,월세,202411,25,"1,000",54,2001.0,암사길,202411~202611,신규,-,,,다가구,강동구,강동구 암사길,강동구 암사길,37.5519443041503,127.135795416859,암사1동
215,서울특별시 강동구 성내동,4**,8m미만,39.67,월세,202411,25,"12,000",20,1995.0,풍성로56길,202412~202612,신규,-,,,다가구,강동구,강동구 풍성로56길,강동구 풍성로56길,37.5279416240794,127.134744002919,성내3동
216,서울특별시 강동구 성내동,4**,8m미만,60.0,전세,202411,25,"29,000",0,2002.0,양재대로87길,202501~202701,신규,-,,,다가구,강동구,강동구 양재대로87길,강동구 양재대로87길,37.5259274090237,127.132698407575,성내3동
217,서울특별시 강남구 역삼동,6**,8m미만,39.0,월세,202411,25,"13,000",30,1991.0,봉은사로20길,202412~202612,신규,-,,,다가구,강남구,강남구 봉은사로20길,강남구 봉은사로20길,37.5046015590221,127.032392212062,역삼1동
218,서울특별시 서초구 방배동,8**,8m미만,56.96,전세,202411,25,"27,000",0,1976.0,방배로25길,202501~202701,신규,-,,,단독,서초구,서초구 방배로25길,서초구 방배로25길,37.4881164213967,126.990962970167,방배4동
219,서울특별시 송파구 거여동,1**,8m미만,40.73,전세,202411,25,"13,000",0,1988.0,거마로9길,202501~202701,신규,-,,,단독,송파구,송파구 거마로9길,송파구 거마로9길,37.4969251317326,127.143825175466,거여1동
220,서울특별시 송파구 방이동,5*,8m미만,21.0,월세,202411,25,"12,000",3,1996.0,오금로11길,202412~202612,갱신,사용,"12,000",0.0,다가구,송파구,송파구 오금로11길,송파구 오금로11길,37.5154268148685,127.111087252218,방이2동
221,서울특별시 관악구 신림동,6**,8m미만,199.47,월세,202411,25,500,30,1993.0,난향9길,202412~202612,신규,-,,,다가구,관악구,관악구 난향9길,관악구 난향9길,37.4612431581558,126.914916656569,난향동
222,서울특별시 송파구 석촌동,5*,8m미만,23.0,월세,202411,25,500,47,1999.0,석촌호수로18길,202411~202611,신규,-,,,다가구,송파구,송파구 석촌호수로18길,송파구 석촌호수로18길,37.5056535192253,127.101280283344,석촌동
223,서울특별시 관악구 신림동,1***,25m미만,74.1,전세,202411,25,"24,000",0,1995.0,문성로,202501~202701,신규,-,,,단독,관악구,관악구 문성로,관악구 문성로,37.4786020887235,126.922060744466,미성동
224,서울특별시 서초구 잠원동,3*,8m미만,23.0,전세,202411,25,"17,000",0,1993.0,강남대로93길,202412~202612,신규,-,,,다가구,서초구,서초구 강남대로93길,서초구 강남대로93길,37.5126737135728,127.019414775997,잠원동
225,서울특별시 강남구 삼성동,1**,8m미만,36.26,월세,202411,25,"1,000",60,1997.0,테헤란로81길,202411~202611,신규,-,,,다가구,강남구,강남구 테헤란로81길,강남구 테헤란로81길,37.5090120047979,127.056506364229,삼성1동
226,서울특별시 서초구 잠원동,4*,12m미만,21.0,월세,202411,25,"8,000",10,1990.0,신반포로43길,202412~202612,신규,-,,,다가구,서초구,서초구 신반포로43길,서초구 신반포로43길,37.5112149174588,127.01756046887,잠원동
227,서울특별시 서초구 반포동,8*,8m미만,52.89,월세,202411,25,"18,000",20,1993.0,동광로43길,202412~202612,신규,-,,,다가구,서초구,서초구 동광로43길,서초구 동광로43길,37.4960422963128,127.000604205959,반포4동
228,서울특별시 강남구 역삼동,6**,8m미만,30.0,전세,202411,25,"12,000",0,1998.0,논현로102길,202412~202612,신규,-,,,다가구,강남구,강남구 논현로102길,강남구 논현로102길,37.5055617045537,127.037457042463,역삼1동
229,서울특별시 강남구 역삼동,7**,8m미만,55.66,전세,202411,25,"28,000",0,1997.0,언주로67길,202501~202701,신규,-,,,다가구,강남구,강남구 언주로67길,강남구 언주로67길,37.4957149317087,127.044336513223,역삼2동
230,서울특별시 관악구 신림동,9*,8m미만,21.5,월세,202411,25,"1,000",55,2020.0,신림로44다길,202411~202611,신규,-,,,단독,관악구,관악구 신림로44다길,관악구 신림로44다길,37.4784227823959,126.936002563827,서원동
231,서울특별시 관악구 신림동,6**,8m미만,141.39,월세,202411,25,"8,000",130,1985.0,난곡로26길,202412~202612,신규,-,,,단독,관악구,관악구 난곡로26길,관악구 난곡로26길,37.4693773787367,126.92429264397,난곡동
232,서울특별시 관악구 신림동,5**,8m미만,84.53,월세,202411,25,"9,000",45,1997.0,조원로,202412~202612,신규,-,,,다가구,관악구,관악구 조원로,관악구 조원로,37.4846221470569,126.912736688596,조원동
233,서울특별시 관악구 신림동,1***,8m미만,14.88,월세,202411,25,"1,000",45,,신원로3가길,202411~202611,신규,-,,,다가구,관악구,관악구 신원로3가길,관악구 신원로3가길,37.4810522093509,126.927301178964,신원동
234,서울특별시 강남구 신사동,5**,8m미만,24.0,월세,202411,25,500,47,1996.0,강남대로156길,202412~202511,신규,-,,,다가구,강남구,강남구 강남대로156길,강남구 강남대로156길,37.518514540165,127.021108075322,신사동
235,서울특별시 강남구 논현동,2**,8m미만,46.2,월세,202411,25,"20,000",60,2002.0,선릉로129길,202501~202701,갱신,-,"2,000",112.0,다가구,강남구,강남구 선릉로129길,강남구 선릉로129길,37.516050713879,127.04003177814,논현2동
236,서울특별시 관악구 신림동,6**,8m미만,14.67,전세,202411,25,"13,000",0,2022.0,난곡로34길,202501~202701,신규,-,,,단독,관악구,관악구 난곡로34길,관악구 난곡로34길,37.4720443538988,126.92205138829,난곡동
237,서울특별시 관악구 봉천동,8**,8m미만,18.0,월세,202411,25,500,43,2017.0,봉천로43길,202411~202611,신규,-,,,다가구,관악구,관악구 봉천로43길,관악구 봉천로43길,37.4838757862195,126.94856093743,중앙동
238,서울특별시 관악구 봉천동,1***,8m미만,30.0,월세,202411,25,"5,000",40,1993.0,인헌3길,202411~202611,갱신,-,"3,000",38.0,단독,관악구,관악구 인헌3길,관악구 인헌3길,37.474074121405,126.96847890786,인헌동
239,서울특별시 관악구 봉천동,1***,8m미만,44.8,월세,202411,25,"3,000",90,1996.0,남부순환로234길,202412~202612,신규,-,,,단독,관악구,관악구 남부순환로234길,관악구 남부순환로234길,37.477424972021,126.956537473777,낙성대동
240,서울특별시 관악구 봉천동,6**,8m미만,38.64,월세,202411,25,"2,600",35,1993.0,국회단지15길,202411~202611,신규,-,,,다가구,관악구,관악구 국회단지15길,관악구 국회단지15길,37.4894540092858,126.940843789661,은천동
241,서울특별시 관악구 봉천동,1***,8m미만,18.0,월세,202411,25,"2,000",55,2020.0,솔밭로2길,202412~202612,신규,-,,,단독,관악구,관악구 솔밭로2길,관악구 솔밭로2길,37.4777225480755,126.963954455687,행운동
242,서울특별시 관악구 봉천동,9*,8m미만,17.0,월세,202411,25,"1,000",50,2017.0,남부순환로231길,202412~202612,신규,-,,,단독,관악구,관악구 남부순환로231길,관악구 남부순환로231길,37.4804235844481,126.957677757154,행운동
243,서울특별시 관악구 신림동,4**,8m미만,32.0,월세,202411,25,500,55,1992.0,문성로40길,202411~202611,신규,-,,,다가구,관악구,관악구 문성로40길,관악구 문성로40길,37.4774922384859,126.93122460702,서원동
244,서울특별시 관악구 봉천동,1***,8m미만,18.0,월세,202411,25,300,29,2009.0,남부순환로247길,202411~202511,신규,-,,,단독,관악구,관악구 남부순환로247길,관악구 남부순환로247길,37.4780966265321,126.966012923648,행운동
245,서울특별시 관악구 신림동,1***,12m미만,27.72,월세,202411,25,"3,000",70,,남부순환로172길,202411~202611,신규,-,,,단독,관악구,관악구 남부순환로172길,관악구 남부순환로172길,37.4826252184317,126.922662472485,신원동
246,서울특별시 동작구 사당동,2**,8m미만,51.45,월세,202411,25,"12,000",55,1997.0,사당로13길,202412~202612,신규,-,,,다가구,동작구,동작구 사당로13길,동작구 사당로13길,37.4861316035439,126.971671538792,사당3동
248,서울특별시 동작구 사당동,1***,8m미만,21.2,월세,202411,25,"12,000",30,2021.0,동작대로9가길,202412~202612,신규,-,,,다가구,동작구,동작구 동작대로9가길,동작구 동작대로9가길,37.4795604238146,126.979334658366,사당1동
249,서울특별시 동작구 사당동,2**,8m미만,74.18,월세,202411,25,"10,000",120,2013.0,사당로4길,202412~202612,신규,-,,,다가구,동작구,동작구 사당로4길,동작구 사당로4길,37.4867363932451,126.965679072835,사당5동
250,서울특별시 동작구 사당동,6*,8m미만,60.93,월세,202411,25,"2,000",80,2000.0,동작대로33바길,202501~202701,신규,-,,,다가구,동작구,동작구 동작대로33바길,동작구 동작대로33바길,37.4916469061554,126.977824238353,사당2동
251,서울특별시 동작구 사당동,9*,12m미만,52.89,월세,202411,25,"20,000",50,1974.0,동작대로31길,-,-,-,,,다가구,동작구,동작구 동작대로31길,동작구 동작대로31길,37.4889386642408,126.980962134673,사당2동
252,서울특별시 강동구 고덕동,5**,8m미만,77.76,전세,202411,25,"27,000",0,1988.0,동남로85길,202412~202612,신규,-,,,단독,강동구,강동구 동남로85길,강동구 동남로85길,37.5607099222486,127.154209498216,고덕1동
253,서울특별시 송파구 마천동,3**,8m미만,25.0,월세,202411,25,0,25,1985.0,성내천로33나길,202411~202611,신규,-,,,단독,송파구,송파구 성내천로33나길,송파구 성내천로33나길,37.5004391146057,127.153997931112,마천2동
254,서울특별시 동작구 신대방동,3**,8m미만,249.48,전세,202411,25,"26,000",0,2008.0,보라매로19길,202411~202611,갱신,사용,"25,000",0.0,다가구,동작구,동작구 보라매로19길,동작구 보라매로19길,37.4977980381434,126.927110682368,신대방2동
255,서울특별시 동작구 신대방동,3**,8m미만,23.31,전세,202411,25,"16,000",0,2018.0,여의대방로22나길,202501~202701,신규,-,,,다가구,동작구,동작구 여의대방로22나길,동작구 여의대방로22나길,37.4959404155911,126.922414321809,신대방2동
256,서울특별시 송파구 잠실동,2**,8m미만,48.92,전세,202411,25,"25,000",0,1993.0,석촌호수로12길,202501~202701,신규,-,,,다가구,송파구,송파구 석촌호수로12길,송파구 석촌호수로12길,37.5086878340311,127.083159337698,잠실본동
258,서울특별시 관악구 신림동,1*,8m미만,26.4,월세,202411,25,"15,000",5,2010.0,남부순환로184가길,202501~202701,신규,-,,,단독,관악구,관악구 남부순환로184가길,관악구 남부순환로184가길,37.4831341913973,126.932500452955,서원동
259,서울특별시 강동구 암사동,4**,8m미만,30.0,월세,202411,25,250,50,1987.0,고덕로24나길,202411~202511,신규,-,,,단독,강동구,강동구 고덕로24나길,강동구 고덕로24나길,37.552694577241,127.136097581652,암사1동
260,서울특별시 송파구 방이동,1**,12m미만,24.0,월세,202411,25,"2,000",65,1988.0,백제고분로48길,202412~202612,신규,-,,,다가구,송파구,송파구 백제고분로48길,송파구 백제고분로48길,37.5109744433324,127.115657718655,방이2동
261,서울특별시 강북구 미아동,3**,12m미만,41.46,전세,202411,25,"13,000",0,1994.0,솔매로46길,202501~202701,신규,-,,,다가구,강북구,강북구 솔매로46길,강북구 솔매로46길,37.6247308914288,127.025999299095,미아동
262,서울특별시 동작구 흑석동,1**,8m미만,14.05,월세,202411,25,"11,000",2,1982.0,흑석로13가길,202412~202612,갱신,사용,"11,000",0.0,단독,동작구,동작구 흑석로13가길,동작구 흑석로13가길,37.5080398127908,126.960287262317,흑석동
263,서울특별시 성북구 석관동,1**,8m미만,53.14,월세,202411,25,"12,000",30,1997.0,한천로,202501~202701,신규,-,,,다가구,성북구,성북구 한천로,성북구 한천로,37.6152763067809,127.058249959428,장위3동
264,서울특별시 성북구 석관동,2**,8m미만,33.0,월세,202411,25,"3,000",35,1992.0,화랑로32길,202502~202702,신규,-,,,다가구,성북구,성북구 화랑로32길,성북구 화랑로32길,37.6069554883758,127.058441773107,석관동
265,서울특별시 영등포구 도림동,1**,12m미만,20.0,월세,202411,25,"1,000",40,2017.0,도림로108길,202411~202510,신규,-,,,단독,영등포구,영등포구 도림로108길,영등포구 도림로108길,37.5080663306526,126.903137264814,도림동
266,서울특별시 영등포구 양평동1가,2**,8m미만,50.46,월세,202411,25,"2,000",65,1988.0,영등포로11길,202412~202612,신규,-,,,다가구,영등포구,영등포구 영등포로11길,영등포구 영등포로11길,37.5239513252475,126.888089790036,양평1동
267,서울특별시 은평구 대조동,2**,25m이상,13.6,월세,202411,25,"3,000",22,1996.0,연서로,202412~202612,갱신,-,0,20.0,단독,은평구,은평구 연서로,은평구 연서로,37.624185395914,126.928235430795,불광2동
268,서울특별시 도봉구 쌍문동,3**,12m미만,50.0,전세,202411,25,"10,500",0,1996.0,노해로46길,202501~202701,신규,-,,,다가구,도봉구,도봉구 노해로46길,도봉구 노해로46길,37.6490393702276,127.030204626577,쌍문3동
269,서울특별시 광진구 능동,2**,8m미만,39.0,전세,202411,25,"14,000",0,2018.0,천호대로118길,202411~202611,신규,-,,,다가구,광진구,광진구 천호대로118길,광진구 천호대로118길,37.5535799964171,127.084984386698,능동
270,서울특별시 동작구 상도동,2**,8m미만,59.4,월세,202411,25,"9,000",25,1997.0,성대로10길,202412~202612,갱신,-,"9,000",22.0,다가구,동작구,동작구 성대로10길,동작구 성대로10길,37.4961850639106,126.93615352982,상도4동
271,서울특별시 도봉구 창동,7**,25m미만,49.9,월세,202411,25,"2,000",70,1993.0,도봉로136가길,202411~202611,갱신,-,"1,000",63.0,다가구,도봉구,도봉구 도봉로136가길,도봉구 도봉로136가길,37.6572096706821,127.041956498867,창5동
272,서울특별시 도봉구 창동,6**,8m미만,63.55,월세,202411,25,"13,200",25,1991.0,덕릉로63길,202501~202701,신규,-,,,다가구,도봉구,도봉구 덕릉로63길,도봉구 덕릉로63길,37.6440083832824,127.04039064027,창2동
273,서울특별시 동작구 상도동,1**,8m미만,46.0,전세,202411,25,"12,000",0,1995.0,상도로58길,202412~202612,갱신,-,"12,000",0.0,다가구,동작구,동작구 상도로58길,동작구 상도로58길,37.4943292498749,126.952586691774,상도1동
274,서울특별시 중랑구 묵동,2**,8m미만,46.36,월세,202411,25,"8,700",60,,중랑천로50길,202412~202612,신규,-,,,다가구,중랑구,중랑구 중랑천로50길,중랑구 중랑천로50길,37.6056248862747,127.074477741356,묵2동
275,서울특별시 중랑구 묵동,2**,8m미만,33.0,전세,202411,25,"16,800",0,2018.0,동일로157다길,-,-,-,,,다가구,중랑구,중랑구 동일로157다길,중랑구 동일로157다길,37.6087902257278,127.075497013426,묵2동
276,서울특별시 은평구 증산동,2**,8m미만,73.45,전세,202411,25,"4,000",0,1974.0,증산로5길,202411~202611,신규,-,,,단독,은평구,은평구 증산로5길,은평구 증산로5길,37.5838958270254,126.905921361742,증산동
277,서울특별시 중랑구 묵동,2**,8m미만,35.0,월세,202411,25,"7,000",20,1994.0,중랑역로,202412~202612,갱신,-,"7,000",10.0,다가구,중랑구,중랑구 중랑역로,중랑구 중랑역로,37.6060306677537,127.07690384611,묵2동
278,서울특별시 동작구 노량진동,2**,8m미만,40.3,전세,202411,25,"10,000",0,1989.0,장승배기로24길,202501~202701,갱신,-,"7,500",0.0,단독,동작구,동작구 장승배기로24길,동작구 장승배기로24길,37.5100975362856,126.94164298783,노량진1동
279,서울특별시 동작구 노량진동,2**,8m미만,40.0,월세,202411,25,0,37,1988.0,노량진로6길,202411~202511,신규,-,,,단독,동작구,동작구 노량진로6길,동작구 노량진로6길,37.5110657852497,126.935795317046,노량진2동
280,서울특별시 광진구 군자동,3*,8m미만,34.42,전세,202411,25,"12,000",0,1989.0,천호대로104길,202412~202612,신규,-,,,단독,광진구,광진구 천호대로104길,광진구 천호대로104길,37.5575660460211,127.075376830395,군자동
281,서울특별시 광진구 중곡동,2**,8m미만,39.6,월세,202411,25,"2,000",100,2018.0,긴고랑로10길,202412~202512,신규,-,,,다가구,광진구,광진구 긴고랑로10길,광진구 긴고랑로10길,37.5616570473631,127.079727621072,중곡1동
282,서울특별시 광진구 중곡동,6**,8m미만,33.67,월세,202411,25,"3,000",50,1990.0,동일로76길,-,-,-,,,단독,광진구,광진구 동일로76길,광진구 동일로76길,37.5678265572134,127.08048035842,중곡3동
283,서울특별시 광진구 중곡동,1**,12m미만,33.0,월세,202411,25,"16,800",6,2016.0,능동로38길,-,-,-,,,다가구,광진구,광진구 능동로38길,광진구 능동로38길,37.5574128255032,127.081031077384,중곡2동
284,서울특별시 광진구 중곡동,2**,8m미만,41.54,전세,202411,25,"11,000",0,1990.0,긴고랑로8길,202412~202612,갱신,-,"11,000",0.0,단독,광진구,광진구 긴고랑로8길,광진구 긴고랑로8길,37.5614897866029,127.078028008044,중곡1동
285,서울특별시 광진구 중곡동,5*,8m미만,20.58,전세,202411,25,"18,000",0,2020.0,능동로42길,202501~202701,신규,-,,,다가구,광진구,광진구 능동로42길,광진구 능동로42길,37.5589310825248,127.082995464758,중곡2동
286,서울특별시 도봉구 방학동,7**,8m미만,40.6,월세,202411,25,300,40,1990.0,도봉로149길,202411~202611,신규,-,,,다가구,도봉구,도봉구 도봉로149길,도봉구 도봉로149길,37.6663335550916,127.041936585746,방학1동
287,서울특별시 도봉구 방학동,6**,12m미만,46.6,월세,202411,25,500,60,2002.0,도당로19길,202501~202701,신규,-,,,다가구,도봉구,도봉구 도당로19길,도봉구 도당로19길,37.6689392547112,127.039398319987,방학2동
288,서울특별시 광진구 군자동,1**,12m미만,23.42,전세,202411,25,"15,000",0,2016.0,동일로56길,202412~202612,신규,-,,,다가구,광진구,광진구 동일로56길,광진구 동일로56길,37.555746267423,127.073718925382,군자동
289,서울특별시 강북구 수유동,4**,8m미만,43.41,월세,202411,25,"6,750",30,1998.0,수유로,202412~202612,신규,-,,,다가구,강북구,강북구 수유로,강북구 수유로,37.6346294926697,127.019415079774,인수동
290,서울특별시 강북구 수유동,5*,8m미만,49.92,월세,202411,25,"8,600",25,1993.0,수유로4길,202412~202612,신규,-,,,다가구,강북구,강북구 수유로4길,강북구 수유로4길,37.6318562020239,127.020286911137,수유1동
291,서울특별시 강북구 수유동,5*,8m미만,38.87,전세,202411,25,"16,000",0,2005.0,덕릉로24길,202501~202701,신규,-,,,다가구,강북구,강북구 덕릉로24길,강북구 덕릉로24길,37.6333615062811,127.021654407845,수유1동
292,서울특별시 서대문구 연희동,2**,8m미만,23.1,월세,202411,25,500,30,1995.0,연희로12길,-,-,-,,,단독,서대문구,서대문구 연희로12길,서대문구 연희로12길,37.5665660645237,126.932928937406,연희동
293,서울특별시 서대문구 북가좌동,*,8m미만,50.2,전세,202411,25,"12,000",0,1987.0,증가로24바길,202411~202611,갱신,-,"11,000",0.0,단독,서대문구,서대문구 증가로24바길,서대문구 증가로24바길,37.5830623571686,126.917669384474,북가좌2동
294,서울특별시 마포구 공덕동,1*,8m미만,19.97,전세,202411,25,"5,500",0,1995.0,만리재로12나길,202411~202611,갱신,-,"5,000",0.0,단독,마포구,마포구 만리재로12나길,마포구 만리재로12나길,37.5491933046316,126.962112952504,공덕동
295,서울특별시 광진구 구의동,2**,8m미만,35.0,월세,202411,25,"1,000",75,1993.0,자양로22길,202412~202612,신규,-,,,다가구,광진구,광진구 자양로22길,광진구 자양로22길,37.5396945298988,127.085849154135,구의1동
296,서울특별시 광진구 구의동,2**,8m미만,39.0,월세,202411,25,"3,000",85,2013.0,광나루로38길,202501~202701,신규,-,,,다가구,광진구,광진구 광나루로38길,광진구 광나루로38길,37.5429574528916,127.087751513829,구의1동
297,서울특별시 광진구 구의동,6**,8m미만,15.0,월세,202411,25,"1,000",45,2016.0,광나루로30가길,202412~202612,신규,-,,,다가구,광진구,광진구 광나루로30가길,광진구 광나루로30가길,37.544043209514,127.082941616026,구의1동
298,서울특별시 노원구 공릉동,3**,8m미만,194.04,월세,202411,25,"1,000",50,1993.0,공릉로34길,202412~202612,신규,-,,,다가구,노원구,노원구 공릉로34길,노원구 공릉로34길,37.6240592153618,127.082058633158,공릉2동
299,서울특별시 노원구 공릉동,5**,8m미만,39.0,전세,202411,25,"20,000",0,2020.0,동일로183길,202412~202612,신규,-,,,다가구,노원구,노원구 동일로183길,노원구 동일로183길,37.6230390611684,127.072516071125,공릉1동
300,서울특별시 도봉구 도봉동,5**,8m미만,20.0,월세,202411,25,500,33,2018.0,도봉로169나길,202411~202511,신규,-,,,다가구,도봉구,도봉구 도봉로169나길,도봉구 도봉로169나길,37.6770519665503,127.043686514467,도봉1동
301,서울특별시 은평구 불광동,3**,8m미만,33.32,월세,202411,25,"8,000",20,1988.0,통일로80가길,-,-,-,,,단독,은평구,은평구 통일로80가길,은평구 통일로80가길,37.6210843263178,126.922319796899,불광2동
302,서울특별시 마포구 염리동,1**,8m미만,16.53,월세,202411,25,"2,000",50,2014.0,마포대로11가길,202411~202611,신규,-,,,다가구,마포구,마포구 마포대로11가길,마포구 마포대로11가길,37.5482075972933,126.949548124457,염리동
303,서울특별시 마포구 합정동,3**,8m미만,82.56,전세,202411,25,"40,000",0,2002.0,독막로4길,202501~202701,신규,-,,,다가구,마포구,마포구 독막로4길,마포구 독막로4길,37.546888214629,126.91643488664,합정동
304,서울특별시 성동구 송정동,7*,8m미만,23.0,월세,202411,25,"1,000",50,1974.0,송정12라길,202412~202612,신규,-,,,단독,성동구,성동구 송정12라길,성동구 송정12라길,37.5510245857188,127.068019276215,송정동
305,서울특별시 성동구 송정동,9*,8m미만,27.0,전세,202411,25,"13,000",0,1988.0,동일로55길,202412~202612,신규,-,,,단독,성동구,성동구 동일로55길,성동구 동일로55길,37.5564827106122,127.071127153395,송정동
306,서울특별시 동작구 노량진동,2**,8m미만,141.16,전세,202411,25,"80,000",0,1968.0,장승배기로20가길,202411~202611,신규,-,,,단독,동작구,동작구 장승배기로20가길,동작구 장승배기로20가길,37.5079882475472,126.940844209458,노량진2동
307,서울특별시 종로구 창신동,7*,8m미만,33.84,전세,202411,25,"13,000",0,1992.0,지봉로7길,202501~202701,신규,-,,,단독,종로구,종로구 지봉로7길,종로구 지봉로7길,37.575026736091,127.015183576472,창신1동
308,서울특별시 종로구 필운동,5*,8m미만,20.0,월세,202411,25,"1,000",35,1994.0,필운대로1길,202411~202511,신규,-,,,단독,종로구,종로구 필운대로1길,종로구 필운대로1길,37.5778031223093,126.967996102474,사직동
309,서울특별시 양천구 목동,6**,8m미만,25.11,월세,202411,25,300,40,1995.0,목동중앙북로8라길,202411~202611,신규,-,,,다가구,양천구,양천구 목동중앙북로8라길,양천구 목동중앙북로8라길,37.5464014226923,126.863941810738,목3동
310,서울특별시 영등포구 대림동,8**,8m미만,20.0,월세,202411,25,500,40,2016.0,도림로50길,202411~202611,신규,-,,,단독,영등포구,영등포구 도림로50길,영등포구 도림로50길,37.4946681371501,126.901538409825,대림1동
311,서울특별시 영등포구 대림동,8**,8m미만,40.57,전세,202411,25,"11,000",0,1990.0,디지털로73길,202411~202611,신규,-,,,다가구,영등포구,영등포구 디지털로73길,영등포구 디지털로73길,37.4951746774874,126.905278394323,대림1동
312,서울특별시 중랑구 상봉동,2**,12m미만,57.0,전세,202411,25,"20,000",0,2005.0,상봉중앙로8나길,-,-,-,,,다가구,중랑구,중랑구 상봉중앙로8나길,중랑구 상봉중앙로8나길,37.6015095618541,127.091002710069,상봉1동
313,서울특별시 강서구 화곡동,4**,12m미만,33.0,전세,202411,25,"11,000",0,1991.0,곰달래로31길,202411~202611,갱신,-,"9,000",0.0,다가구,강서구,강서구 곰달래로31길,강서구 곰달래로31길,37.533003658957,126.851245443988,화곡8동
314,서울특별시 강서구 화곡동,1***,12m미만,18.0,월세,202411,25,"1,000",45,2010.0,화곡로59길,202411~202511,신규,-,,,다가구,강서구,강서구 화곡로59길,강서구 화곡로59길,37.5547222049673,126.848954006469,화곡6동
315,서울특별시 강서구 화곡동,9**,12m미만,97.2,월세,202411,25,"2,000",100,2003.0,까치산로,202411~202611,신규,-,,,다가구,강서구,강서구 까치산로,강서구 까치산로,37.5473311724736,126.848766476236,화곡본동
316,서울특별시 강서구 화곡동,1***,8m미만,33.53,월세,202411,25,500,35,1988.0,공항대로48길,202411~202611,신규,-,,,단독,강서구,강서구 공항대로48길,강서구 공항대로48길,37.552885741127,126.854509576661,화곡6동
317,서울특별시 강서구 화곡동,2*,8m미만,32.39,월세,202411,25,500,40,1993.0,초록마을로5길,202411~202611,신규,-,,,다가구,강서구,강서구 초록마을로5길,강서구 초록마을로5길,37.5437720913401,126.847538346243,화곡본동
318,서울특별시 성북구 안암동1가,1**,12m미만,46.28,전세,202411,25,"18,000",0,1992.0,고려대로11길,202412~202612,신규,-,,,다가구,성북구,성북구 고려대로11길,성북구 고려대로11길,37.5879392598452,127.021424534227,안암동
319,서울특별시 은평구 갈현동,4**,8m미만,19.0,월세,202411,25,300,40,2010.0,연서로23길,202411~202611,신규,-,,,단독,은평구,은평구 연서로23길,은평구 연서로23길,37.6157819739333,126.917097693729,갈현2동
320,서울특별시 강서구 방화동,6**,8m미만,40.0,월세,202411,25,500,35,1993.0,금낭화로3길,202411~202611,갱신,-,500,35.0,다가구,강서구,강서구 금낭화로3길,강서구 금낭화로3길,37.5662101251918,126.811343406877,방화2동
321,서울특별시 강서구 방화동,4**,8m미만,25.0,전세,202411,25,"9,700",0,1997.0,양천로1길,202412~202612,신규,-,,,다가구,강서구,강서구 양천로1길,강서구 양천로1길,37.5742588074274,126.807333991274,방화1동
322,서울특별시 구로구 신도림동,2**,12m미만,40.0,전세,202411,25,"7,500",0,1991.0,신도림로11라길,202412~202612,신규,-,,,다가구,구로구,구로구 신도림로11라길,구로구 신도림로11라길,37.5107792404802,126.879784757323,신도림동
324,서울특별시 광진구 화양동,4*,8m미만,23.1,월세,202411,25,"2,000",46,1990.0,아차산로29길,-,-,-,,,단독,광진구,광진구 아차산로29길,광진구 아차산로29길,37.5424772255591,127.068856881776,화양동
325,서울특별시 광진구 화양동,1*,8m미만,18.0,월세,202411,25,300,45,1991.0,아차산로33길,202411~202610,갱신,-,300,45.0,단독,광진구,광진구 아차산로33길,광진구 아차산로33길,37.5422400470412,127.070745985473,화양동
326,서울특별시 성북구 하월곡동,3*,8m미만,15.0,전세,202411,25,"6,500",0,2012.0,화랑로,202412~202612,신규,-,,,단독,성북구,성북구 화랑로,성북구 화랑로,37.6077848227002,127.051123359584,월곡2동
327,서울특별시 광진구 화양동,3*,8m미만,30.0,월세,202411,25,"1,000",60,2002.0,아차산로21길,202411~202611,신규,-,,,다가구,광진구,광진구 아차산로21길,광진구 아차산로21길,37.5442925155547,127.06609470446,화양동
328,서울특별시 은평구 갈현동,5**,8m미만,23.0,월세,202411,25,500,45,2016.0,갈현로19길,202412~202612,신규,-,,,다가구,은평구,은평구 갈현로19길,은평구 갈현로19길,37.6152869500877,126.911727039989,갈현2동
329,서울특별시 광진구 자양동,4**,8m미만,61.64,전세,202411,25,"22,000",0,1997.0,뚝섬로36길,202502~202702,신규,-,,,다가구,광진구,광진구 뚝섬로36길,광진구 뚝섬로36길,37.5325439845286,127.070810479161,자양3동
330,서울특별시 성북구 상월곡동,5*,8m미만,16.0,월세,202411,25,"3,000",43,2021.0,화랑로15가길,-,-,-,,,다가구,성북구,성북구 화랑로15가길,성북구 화랑로15가길,37.6061396363766,127.045807066346,월곡2동
331,서울특별시 강북구 미아동,4**,8m미만,48.18,전세,202411,25,"15,000",0,1993.0,솔샘로64가길,202412~202612,신규,-,,,다가구,강북구,강북구 솔샘로64가길,강북구 솔샘로64가길,37.6167600233953,127.026452759786,송천동
332,서울특별시 강북구 미아동,3**,8m미만,20.0,월세,202411,25,"5,000",10,2016.0,도봉로51길,202412~202612,신규,-,,,단독,강북구,강북구 도봉로51길,강북구 도봉로51길,37.6251722758044,127.023912514117,미아동
333,서울특별시 강북구 미아동,4**,8m미만,73.0,전세,202411,25,"25,000",0,1994.0,솔샘로68길,202501~202701,신규,-,,,다가구,강북구,강북구 솔샘로68길,강북구 솔샘로68길,37.6161507277105,127.028957292677,송천동
334,서울특별시 영등포구 신길동,4***,8m미만,17.0,월세,202411,25,"3,000",23,2014.0,신풍로22길,202411~202611,신규,-,,,단독,영등포구,영등포구 신풍로22길,영등포구 신풍로22길,37.4996519755072,126.917817256208,신길6동
335,서울특별시 노원구 중계동,9*,12m미만,89.54,월세,202411,25,"3,000",110,2003.0,중계로14길,202502~202702,신규,-,,,다가구,노원구,노원구 중계로14길,노원구 중계로14길,37.6498738406186,127.082237738936,중계본동
336,서울특별시 구로구 고척동,5*,8m미만,241.14,월세,202411,25,"2,000",53,1993.0,경인로47나길,202411~202611,갱신,-,"2,000",48.0,다가구,구로구,구로구 경인로47나길,구로구 경인로47나길,37.5023977660975,126.865917594023,고척1동
337,서울특별시 구로구 개봉동,6*,8m미만,49.77,전세,202411,25,"13,000",0,1993.0,고척로,202501~202701,신규,-,,,다가구,구로구,구로구 고척로,구로구 고척로,37.5019552138842,126.847513150127,개봉1동
338,서울특별시 구로구 개봉동,3**,8m미만,32.0,전세,202411,25,"10,000",0,1991.0,서해안로34가길,202412~202612,신규,-,,,다가구,구로구,구로구 서해안로34가길,구로구 서해안로34가길,37.4938974940703,126.848894865448,개봉2동
339,서울특별시 용산구 한남동,7**,8m미만,57.15,전세,202411,25,"28,750",0,1997.0,한남대로40길,202412~202612,갱신,-,"26,250",0.0,다가구,용산구,용산구 한남대로40길,용산구 한남대로40길,37.543730801297,127.003705055291,한남동
340,서울특별시 용산구 이태원동,7*,8m미만,30.33,월세,202411,25,800,57,1990.0,보광로55길,202412~202512,신규,-,,,다가구,용산구,용산구 보광로55길,용산구 보광로55길,37.5330381499817,126.993497647323,이태원1동
341,서울특별시 성북구 보문동6가,*,25m미만,73.64,전세,202411,25,"20,000",0,1987.0,보문사길,-,-,-,,,다가구,성북구,성북구 보문사길,성북구 보문사길,37.5828768477067,127.017626875689,보문동
342,서울특별시 중랑구 면목동,1**,25m이상,76.63,전세,202411,25,"12,500",0,1997.0,겸재로,202412~202612,신규,-,,,단독,중랑구,중랑구 겸재로,중랑구 겸재로,37.5877522675096,127.084787834572,면목본동
343,서울특별시 중랑구 면목동,1**,8m미만,43.0,전세,202411,25,"16,000",0,1977.0,동일로91길,202411~202704,갱신,-,"13,000",0.0,단독,중랑구,중랑구 동일로91길,중랑구 동일로91길,37.5829547578286,127.078661539897,면목5동
344,서울특별시 동대문구 이문동,1**,8m미만,24.0,월세,202411,25,200,30,1994.0,신이문로12길,202412~202612,갱신,-,200,25.0,단독,동대문구,동대문구 신이문로12길,동대문구 신이문로12길,37.6021709675844,127.06595211484,이문2동
345,서울특별시 동대문구 이문동,3**,8m미만,40.0,월세,202411,25,300,30,2006.0,이문로19길,202411~202811,신규,-,,,다가구,동대문구,동대문구 이문로19길,동대문구 이문로19길,37.5950883862869,127.057658880818,이문1동
346,서울특별시 성북구 장위동,2**,8m미만,16.5,월세,202411,25,400,35,1970.0,장위로31길,202411~202611,신규,-,,,다가구,성북구,성북구 장위로31길,성북구 장위로31길,37.615282300568,127.047485469758,장위1동
347,서울특별시 성북구 종암동,*,8m미만,40.0,월세,202411,25,"1,000",60,1997.0,종암로16길,202411~202611,신규,-,,,다가구,성북구,성북구 종암로16길,성북구 종암로16길,37.5981106109487,127.037176809887,종암동
348,서울특별시 성북구 종암동,1*,8m미만,43.0,월세,202411,25,"1,000",50,1989.0,종암로14길,202412~202511,신규,-,,,단독,성북구,성북구 종암로14길,성북구 종암로14길,37.5973390903076,127.036606505354,종암동
349,서울특별시 금천구 독산동,1**,8m미만,26.4,전세,202411,25,"8,000",0,1994.0,독산로84길,202501~202701,신규,-,,,다가구,금천구,금천구 독산로84길,금천구 독산로84길,37.4721619818323,126.904776909579,독산4동
350,서울특별시 금천구 독산동,1***,8m미만,19.0,월세,202411,25,300,30,2006.0,시흥대로80길,202411~202611,신규,-,,,단독,금천구,금천구 시흥대로80길,금천구 시흥대로80길,37.4590253015126,126.900798261023,독산2동
351,서울특별시 금천구 시흥동,1**,8m미만,60.48,월세,202411,25,"13,000",5,1983.0,시흥대로75길,202412~202612,신규,-,,,다가구,금천구,금천구 시흥대로75길,금천구 시흥대로75길,37.457652519255,126.898674059506,시흥1동
352,서울특별시 금천구 시흥동,7**,8m미만,51.03,월세,202411,25,"13,000",20,1990.0,독산로40길,202412~202612,신규,-,,,단독,금천구,금천구 독산로40길,금천구 독산로40길,37.4610256853643,126.907407584523,시흥4동
353,서울특별시 금천구 시흥동,7**,8m미만,46.32,월세,202411,25,"13,000",5,1990.0,독산로36길,202412~202612,신규,-,,,단독,금천구,금천구 독산로36길,금천구 독산로36길,37.4603939102774,126.907541060636,시흥4동
354,서울특별시 금천구 시흥동,9**,8m미만,27.0,월세,202411,25,500,35,1983.0,독산로10길,202412~202612,신규,-,,,다가구,금천구,금천구 독산로10길,금천구 독산로10길,37.4501698693571,126.908609314442,시흥5동
355,서울특별시 성북구 종암동,8*,8m미만,75.21,월세,202411,25,"2,000",70,1970.0,종암로21길,202412~202612,신규,-,,,단독,성북구,성북구 종암로21길,성북구 종암로21길,37.6013471120838,127.032416445391,종암동
356,서울특별시 송파구 송파동,1**,8m미만,33.0,전세,202411,25,"11,000",0,1996.0,오금로22길,202411~202611,신규,-,,,다가구,송파구,송파구 오금로22길,송파구 오금로22길,37.5078679055369,127.114233276467,송파1동
357,서울특별시 용산구 후암동,3**,8m미만,103.29,전세,202411,25,"38,000",0,2008.0,두텁바위로61길,202411~202611,갱신,-,"23,000",0.0,다가구,용산구,용산구 두텁바위로61길,용산구 두텁바위로61길,37.5498036527355,126.98079649508,후암동
358,서울특별시 동대문구 이문동,3**,12m미만,36.0,월세,202411,24,"1,000",90,2003.0,회기로25길,202411~202602,신규,-,,,다가구,동대문구,동대문구 회기로25길,동대문구 회기로25길,37.5927258216487,127.05707052779,이문1동
359,서울특별시 서대문구 천연동,1**,8m미만,16.5,월세,202411,24,500,45,2018.0,독립문로12가길,202411~202511,신규,-,,,단독,서대문구,서대문구 독립문로12가길,서대문구 독립문로12가길,37.5671899078178,126.960450909482,천연동
360,서울특별시 구로구 구로동,5**,8m미만,40.0,전세,202411,24,"14,000",0,1996.0,구로중앙로28길,202501~202701,신규,-,,,다가구,구로구,구로구 구로중앙로28길,구로구 구로중앙로28길,37.4998332277314,126.888157232817,구로5동
361,서울특별시 영등포구 신길동,3***,12m미만,18.0,월세,202411,24,"3,000",35,2015.0,신풍로12길,202411~202611,신규,-,,,단독,영등포구,영등포구 신풍로12길,영등포구 신풍로12길,37.4994608250593,126.91309329517,신길6동
362,서울특별시 양천구 목동,6**,8m미만,33.95,전세,202411,24,"23,000",0,2017.0,목동중앙남로16마길,202412~202612,갱신,사용,"22,000",0.0,다가구,양천구,양천구 목동중앙남로16마길,양천구 목동중앙남로16마길,37.5453865672463,126.864201995058,목3동
363,서울특별시 동작구 노량진동,2**,8m미만,16.0,월세,202411,24,250,53,2013.0,만양로12가길,202411~202511,신규,-,,,단독,동작구,동작구 만양로12가길,동작구 만양로12가길,37.5122153906815,126.948313468873,노량진1동
364,서울특별시 마포구 공덕동,1**,8m미만,85.8,전세,202411,24,"32,000",0,2006.0,효창목4길,202411~202611,갱신,-,"31,000",0.0,다가구,마포구,마포구 효창목4길,마포구 효창목4길,37.5472730947748,126.959925164462,공덕동
365,서울특별시 성북구 길음동,4**,8m미만,63.84,전세,202411,24,"18,000",0,1996.0,도봉로3길,202411~202611,갱신,-,"16,000",0.0,다가구,성북구,성북구 도봉로3길,성북구 도봉로3길,37.6104388068228,127.029372541867,길음2동
366,서울특별시 양천구 신정동,9**,8m미만,69.62,월세,202411,24,"8,000",60,1987.0,중앙로48길,202501~202701,신규,-,,,단독,양천구,양천구 중앙로48길,양천구 중앙로48길,37.5239245995838,126.85528011077,신정4동
368,서울특별시 구로구 가리봉동,1**,8m미만,84.7,월세,202411,24,100,27,1969.0,우마1길,202411~202511,신규,-,,,단독,구로구,구로구 우마1길,구로구 우마1길,37.4831640751805,126.888747970951,가리봉동
369,서울특별시 마포구 성산동,6**,8m미만,51.18,전세,202411,24,"19,625",0,2002.0,성미산로,202501~202701,갱신,-,"18,690",0.0,다가구,마포구,마포구 성미산로,마포구 성미산로,37.5616728406933,126.918593861973,연남동
370,서울특별시 동작구 상도동,3**,8m미만,18.0,월세,202411,24,"2,000",53,2010.0,상도로15카길,202411~202511,신규,-,,,다가구,동작구,동작구 상도로15카길,동작구 상도로15카길,37.5051669183388,126.936148256665,상도2동
371,서울특별시 광진구 중곡동,7*,8m미만,56.68,월세,202411,24,"13,000",25,1997.0,긴고랑로38길,202411~202611,갱신,-,"12,000",30.0,다가구,광진구,광진구 긴고랑로38길,광진구 긴고랑로38길,37.5583514120521,127.090436596261,중곡4동
372,서울특별시 은평구 갈현동,4**,12m미만,56.0,월세,202411,24,"1,000",50,1996.0,통일로89길,-,-,-,,,단독,은평구,은평구 통일로89길,은평구 통일로89길,37.6246267963622,126.91853273442,갈현1동
373,서울특별시 영등포구 당산동3가,4**,8m미만,19.52,월세,202411,24,"2,000",60,2019.0,양산로17길,202411~202611,신규,-,,,다가구,영등포구,영등포구 양산로17길,영등포구 양산로17길,37.5257208021894,126.893647067484,당산1동
374,서울특별시 성북구 동선동4가,2**,12m미만,41.31,전세,202411,24,"17,000",0,1992.0,동소문로25가길,202411~202611,갱신,-,"16,000",0.0,다가구,성북구,성북구 동소문로25가길,성북구 동소문로25가길,37.5956099582648,127.019262035916,동선동
375,서울특별시 광진구 자양동,6**,8m미만,40.71,월세,202411,24,"12,000",5,2011.0,뚝섬로51길,202411~202611,갱신,사용,"12,000",5.0,다가구,광진구,광진구 뚝섬로51길,광진구 뚝섬로51길,37.5340421870119,127.080619295181,자양1동
376,서울특별시 동작구 상도동,2**,12m미만,18.02,월세,202411,24,"1,000",43,2017.0,국사봉1길,202411~202511,신규,-,,,단독,동작구,동작구 국사봉1길,동작구 국사봉1길,37.4962094058014,126.932296104672,상도3동
377,서울특별시 성북구 동선동3가,2**,12m미만,49.0,월세,202411,24,"1,000",76,2007.0,보문로34나길,202501~202701,신규,-,,,다가구,성북구,성북구 보문로34나길,성북구 보문로34나길,37.5925824922815,127.020588419364,동선동
378,서울특별시 강동구 길동,3**,8m미만,25.0,월세,202411,24,500,20,,천중로44길,202411~202611,신규,-,,,단독,강동구,강동구 천중로44길,강동구 천중로44길,37.5390790733184,127.139703201554,길동
380,서울특별시 관악구 신림동,1**,8m미만,14.0,월세,202411,24,300,43,1999.0,서림11길,202412~202512,신규,-,,,다가구,관악구,관악구 서림11길,관악구 서림11길,37.4722921911903,126.940962339077,서림동
381,서울특별시 관악구 신림동,1**,8m미만,16.0,월세,202411,24,100,35,2008.0,신림로8길,202411~202511,신규,-,,,단독,관악구,관악구 신림로8길,관악구 신림로8길,37.471256763669,126.93956330127,서림동
382,서울특별시 관악구 봉천동,1***,8m미만,16.5,월세,202411,24,"1,000",50,2008.0,장군봉9길,202411~202611,신규,-,,,단독,관악구,관악구 장군봉9길,관악구 장군봉9길,37.4800303035846,126.939480825176,청룡동
383,서울특별시 동작구 대방동,3**,8m미만,38.0,월세,202411,24,"1,000",40,1993.0,대방동11길,202412~202612,신규,-,,,다가구,동작구,동작구 대방동11길,동작구 대방동11길,37.5021916826624,126.925918483601,대방동
384,서울특별시 강남구 논현동,1**,8m미만,181.6,전세,202411,24,"17,500",0,1993.0,논현로113길,202412~202612,갱신,-,"17,000",0.0,다가구,강남구,강남구 논현로113길,강남구 논현로113길,37.5081250939243,127.031148143605,논현1동
386,서울특별시 관악구 봉천동,1***,8m미만,22.0,월세,202411,23,"10,000",20,2019.0,참숯1길,202412~202612,신규,-,,,단독,관악구,관악구 참숯1길,관악구 참숯1길,37.4781920770174,126.9407496736,청룡동
387,서울특별시 관악구 봉천동,6**,8m미만,39.6,월세,202411,23,"4,000",52,2012.0,봉천로21라길,202412~202612,갱신,-,"4,000",42.0,다가구,관악구,관악구 봉천로21라길,관악구 봉천로21라길,37.4889888027924,126.933366299701,보라매동
388,서울특별시 관악구 봉천동,1**,8m미만,20.0,월세,202411,23,"15,000",10,2004.0,솔밭로5길,202412~202612,신규,-,,,단독,관악구,관악구 솔밭로5길,관악구 솔밭로5길,37.4798539660731,126.9630481665,행운동
389,서울특별시 관악구 봉천동,1***,8m미만,29.7,전세,202411,23,"22,000",0,2012.0,인헌1다길,202501~202701,신규,-,,,다가구,관악구,관악구 인헌1다길,관악구 인헌1다길,37.4735479732633,126.970381643062,인헌동
390,서울특별시 관악구 봉천동,1***,8m미만,43.0,월세,202411,23,"4,000",60,1996.0,인헌1가길,202501~202701,신규,-,,,다가구,관악구,관악구 인헌1가길,관악구 인헌1가길,37.4736455938367,126.968791331639,인헌동
391,서울특별시 강동구 둔촌동,1**,8m미만,62.7,월세,202411,23,"5,000",105,2019.0,풍성로73길,202501~202701,신규,-,,,단독,강동구,강동구 풍성로73길,강동구 풍성로73길,37.5266440910807,127.146184176857,둔촌2동
392,서울특별시 송파구 오금동,1**,12m미만,84.8,월세,202411,23,"5,000",90,1989.0,마천로26길,202501~202701,신규,-,,,단독,송파구,송파구 마천로26길,송파구 마천로26길,37.5022597304055,127.13876499874,오금동
393,서울특별시 동작구 사당동,1***,8m미만,18.0,전세,202411,23,"15,000",0,,남부순환로265가길,202412~202612,신규,-,,,단독,동작구,동작구 남부순환로265가길,동작구 남부순환로265가길,37.4778676746607,126.976331219708,사당1동
394,서울특별시 동작구 사당동,4**,8m미만,33.0,월세,202411,23,"3,000",75,1997.0,남부순환로263길,202411~202611,신규,-,,,다가구,동작구,동작구 남부순환로263길,동작구 남부순환로263길,37.4779355225941,126.97589502687,사당1동
396,서울특별시 강남구 개포동,1***,8m미만,41.4,전세,202411,23,"25,000",0,1989.0,논현로6길,202412~202612,갱신,-,"21,000",20.0,다가구,강남구,강남구 논현로6길,강남구 논현로6길,37.4735609971211,127.050895232485,개포4동
397,서울특별시 서초구 방배동,8**,8m미만,67.0,월세,202411,23,500,80,1997.0,동광로10길,202411~202502,신규,-,,,다가구,서초구,서초구 동광로10길,서초구 동광로10길,37.4901627594644,126.986021581538,방배4동
398,서울특별시 동작구 대방동,1*,25m미만,16.0,월세,202411,23,"4,000",50,1970.0,등용로,-,-,-,,,다가구,동작구,동작구 등용로,동작구 등용로,37.5071243814365,126.932317577167,대방동
399,서울특별시 동작구 대방동,3**,12m미만,16.17,전세,202411,23,"15,000",0,2015.0,대방동15다길,202501~202701,신규,-,,,단독,동작구,동작구 대방동15다길,동작구 대방동15다길,37.5034786826526,126.922415456382,대방동
400,서울특별시 서초구 양재동,9*,8m미만,82.8,전세,202411,23,"39,000",0,1988.0,양재천로,202412~202612,갱신,-,"38,000",0.0,단독,서초구,서초구 양재천로,서초구 양재천로,37.4753779487905,127.038031881273,양재1동
401,서울특별시 서초구 양재동,2**,8m미만,60.63,전세,202411,23,"35,000",0,1990.0,마방로10길,202502~202702,신규,-,,,다가구,서초구,서초구 마방로10길,서초구 마방로10길,37.4761797564987,127.04424538036,양재2동
403,서울특별시 강남구 논현동,7*,8m미만,33.0,월세,202411,23,"1,000",75,1996.0,도산대로34길,202411~202511,신규,-,,,다가구,강남구,강남구 도산대로34길,강남구 도산대로34길,37.519162669052,127.031126261327,논현2동
404,서울특별시 강남구 도곡동,9**,8m미만,41.63,전세,202411,23,"12,000",0,1991.0,남부순환로363길,202501~202701,신규,-,,,다가구,강남구,강남구 남부순환로363길,강남구 남부순환로363길,37.4868328067286,127.037842868281,도곡1동
406,서울특별시 관악구 신림동,4**,8m미만,20.0,월세,202411,23,100,37,1992.0,문성로38길,202411~202511,신규,-,,,단독,관악구,관악구 문성로38길,관악구 문성로38길,37.477075486057,126.930241749205,신원동
407,서울특별시 강남구 일원동,6**,25m이상,24.75,전세,202411,23,"14,000",0,1987.0,일원로,202412~202612,신규,-,,,단독,강남구,강남구 일원로,강남구 일원로,37.4876071144711,127.082342545526,일원본동
408,서울특별시 강동구 성내동,4**,12m미만,50.0,월세,202411,23,"1,500",80,1983.0,풍성로52길,202411~202611,신규,-,,,단독,강동구,강동구 풍성로52길,강동구 풍성로52길,37.5287214160796,127.13197297103,성내3동
409,서울특별시 강동구 성내동,3**,8m미만,62.84,월세,202411,23,300,30,1987.0,양재대로101길,202411~202611,신규,-,,,단독,강동구,강동구 양재대로101길,강동구 양재대로101길,37.5326968312212,127.135614223126,성내3동
410,서울특별시 강동구 성내동,4**,25m미만,64.0,월세,202411,23,"5,000",80,2002.0,강동대로53길,202412~202612,신규,-,,,다가구,강동구,강동구 강동대로53길,강동구 강동대로53길,37.524768812754,127.132134340862,성내3동
411,서울특별시 강동구 성내동,2**,8m미만,19.0,전세,202411,23,"10,000",0,2020.0,천호대로168나길,-,-,-,,,단독,강동구,강동구 천호대로168나길,강동구 천호대로168나길,37.5338494859573,127.130654640879,성내2동
412,서울특별시 강남구 논현동,2**,8m미만,53.79,월세,202411,23,"21,000",30,1991.0,학동로42길,202412~202612,신규,-,,,다가구,강남구,강남구 학동로42길,강남구 학동로42길,37.5125991357668,127.036452421972,논현2동
414,서울특별시 강남구 개포동,1**,8m미만,45.77,월세,202411,23,"10,000",30,1989.0,선릉로16길,202412~202612,신규,-,,,단독,강남구,강남구 선릉로16길,강남구 선릉로16길,37.4839988417672,127.060077576112,개포2동
415,서울특별시 관악구 신림동,4**,8m미만,31.66,월세,202411,23,"12,000",17,1978.0,양산2길,202501~202701,신규,-,,,단독,관악구,관악구 양산2길,관악구 양산2길,37.4742394449993,126.931433905394,서림동
416,서울특별시 송파구 잠실동,3**,8m미만,41.41,전세,202411,23,"25,000",0,1996.0,백제고분로18길,-,-,-,,,다가구,송파구,송파구 백제고분로18길,송파구 백제고분로18길,37.5033825656018,127.084262798917,잠실본동
417,서울특별시 송파구 마천동,1**,8m미만,62.5,전세,202411,23,"13,000",0,1988.0,거마로22길,202501~202701,갱신,-,"11,550",0.0,단독,송파구,송파구 거마로22길,송파구 거마로22길,37.4980147543995,127.149599880255,마천2동
418,서울특별시 강남구 일원동,6**,8m미만,45.52,전세,202411,23,"13,000",0,1986.0,양재대로29길,202501~202701,신규,-,,,단독,강남구,강남구 양재대로29길,강남구 양재대로29길,37.4900920821401,127.082099788156,일원1동
419,서울특별시 동작구 신대방동,6**,8m미만,25.0,월세,202411,23,100,28,1992.0,신대방1길,202411~202611,신규,-,,,다가구,동작구,동작구 신대방1길,동작구 신대방1길,37.4860306684192,126.908186416633,신대방1동
420,서울특별시 동작구 신대방동,4**,8m미만,62.28,전세,202411,23,"20,000",0,1993.0,여의대방로16길,202501~202701,신규,-,,,다가구,동작구,동작구 여의대방로16길,동작구 여의대방로16길,37.4947712313937,126.916287407428,신대방2동
421,서울특별시 동작구 신대방동,6**,8m미만,38.0,월세,202411,23,"1,000",60,1987.0,신대방4길,-,-,-,,,다가구,동작구,동작구 신대방4길,동작구 신대방4길,37.4884551852914,126.911847214088,신대방1동
423,서울특별시 관악구 봉천동,9**,8m미만,20.0,월세,202411,23,"3,000",25,1990.0,봉천로25길,202411~202511,신규,-,,,단독,관악구,관악구 봉천로25길,관악구 봉천로25길,37.4856901896156,126.937956399431,은천동
425,서울특별시 관악구 신림동,5**,8m미만,42.9,월세,202411,23,"11,000",30,2012.0,조원로16가길,202502~202702,신규,-,,,다가구,관악구,관악구 조원로16가길,관악구 조원로16가길,37.4830353767804,126.912243992073,조원동
426,서울특별시 강동구 고덕동,2**,25m미만,45.0,월세,202411,23,"3,000",40,1987.0,동남로82길,202412~202612,신규,-,,,단독,강동구,강동구 동남로82길,강동구 동남로82길,37.5606908824843,127.161442981262,고덕2동
427,서울특별시 관악구 신림동,5**,8m미만,27.0,월세,202411,23,"14,000",20,2023.0,남부순환로131가길,202412~202612,신규,-,,,단독,관악구,관악구 남부순환로131가길,관악구 남부순환로131가길,37.4825084208975,126.908268740366,조원동
428,서울특별시 영등포구 신길동,1**,8m미만,164.96,월세,202411,23,300,35,1981.0,여의대방로47나길,202411~202611,신규,-,,,단독,영등포구,영등포구 여의대방로47나길,영등포구 여의대방로47나길,37.5098449073858,126.92050995715,신길1동
429,서울특별시 강북구 수유동,4**,8m미만,20.64,월세,202411,23,"1,000",70,2022.0,삼양로85길,202411~202611,신규,-,,,다가구,강북구,강북구 삼양로85길,강북구 삼양로85길,37.633062517287,127.016315484569,수유1동
430,서울특별시 강북구 미아동,4**,8m미만,58.62,전세,202411,23,"13,000",0,1970.0,삼양로20나길,202502~202702,신규,-,,,단독,강북구,강북구 삼양로20나길,강북구 삼양로20나길,37.6160622886818,127.023966115778,송천동
431,서울특별시 강북구 미아동,5*,8m미만,30.0,월세,202411,23,100,30,1992.0,오패산로31길,202411~202611,신규,-,,,다가구,강북구,강북구 오패산로31길,강북구 오패산로31길,37.6138536332714,127.032509991219,송중동
432,서울특별시 은평구 역촌동,*,8m미만,41.21,월세,202411,23,"1,000",40,1991.0,연서로10길,202411~202611,갱신,-,500,40.0,다가구,은평구,은평구 연서로10길,은평구 연서로10길,37.6074915422586,126.917121618801,역촌동
433,서울특별시 강북구 미아동,3**,8m미만,59.84,월세,202411,23,"10,000",40,1994.0,도봉로49길,202501~202701,신규,-,,,다가구,강북구,강북구 도봉로49길,강북구 도봉로49길,37.6246098351022,127.023687023745,미아동
434,서울특별시 광진구 군자동,6*,8m미만,21.8,전세,202411,23,"12,000",0,2011.0,군자로15길,202501~202701,신규,-,,,다가구,광진구,광진구 군자로15길,광진구 군자로15길,37.5546485976341,127.073549670327,군자동
435,서울특별시 광진구 군자동,9*,8m미만,30.0,월세,202411,23,"1,000",60,1997.0,천호대로102길,202411~202611,신규,-,,,단독,광진구,광진구 천호대로102길,광진구 천호대로102길,37.5575975435107,127.073579278407,군자동
436,서울특별시 노원구 상계동,1**,12m미만,41.45,전세,202411,23,"7,000",0,1995.0,한글비석로24라길,202502~202702,신규,-,,,다가구,노원구,노원구 한글비석로24라길,노원구 한글비석로24라길,37.664427567868,127.071173132286,상계5동
437,서울특별시 강북구 미아동,2**,8m미만,36.0,전세,202411,23,"10,000",0,1992.0,도봉로63길,202411~202611,갱신,-,"9,500",0.0,다가구,강북구,강북구 도봉로63길,강북구 도봉로63길,37.6288522024483,127.022398738524,미아동
438,서울특별시 광진구 중곡동,1**,8m미만,80.6,전세,202411,23,"15,000",0,1997.0,영화사로7길,202412~202612,신규,-,,,다가구,광진구,광진구 영화사로7길,광진구 영화사로7길,37.5570149801614,127.092852413888,중곡4동
439,서울특별시 강북구 미아동,2**,8m미만,26.0,월세,202411,23,"1,000",50,1992.0,도봉로61길,202411~202611,신규,-,,,다가구,강북구,강북구 도봉로61길,강북구 도봉로61길,37.6282840477814,127.022359824994,미아동
440,서울특별시 동대문구 청량리동,2**,8m미만,78.0,월세,202411,23,"2,000",50,,제기로23길,202412~202612,신규,-,,,단독,동대문구,동대문구 제기로23길,동대문구 제기로23길,37.588523386674,127.042377827022,청량리동
441,서울특별시 광진구 중곡동,2**,25m미만,27.0,월세,202411,23,"6,000",50,2018.0,면목로,202412~202612,신규,-,,,다가구,광진구,광진구 면목로,광진구 면목로,37.562765583317,127.079534577943,중곡1동
442,서울특별시 광진구 중곡동,1**,8m미만,20.0,월세,202411,23,"1,000",85,,천호대로117길,202412~202612,신규,-,,,다가구,광진구,광진구 천호대로117길,광진구 천호대로117길,37.5571892599343,127.085292476157,중곡2동
443,서울특별시 용산구 동빙고동,2**,8m미만,40.0,월세,202411,23,"1,000",60,1992.0,서빙고로71길,-,-,-,,,단독,용산구,용산구 서빙고로71길,용산구 서빙고로71길,37.5225932894713,126.995513400365,서빙고동
444,서울특별시 용산구 동빙고동,2**,8m미만,41.26,월세,202411,23,"1,000",30,1992.0,녹사평대로14길,202411~202611,신규,-,,,다가구,용산구,용산구 녹사평대로14길,용산구 녹사평대로14길,37.5232413303845,126.994342747239,서빙고동
445,서울특별시 구로구 개봉동,3**,8m미만,64.0,월세,202411,23,"5,000",55,1990.0,개봉로11길,202412~202612,신규,-,,,단독,구로구,구로구 개봉로11길,구로구 개봉로11길,37.4879200963407,126.853449319826,개봉3동
446,서울특별시 중구 신당동,1**,8m미만,49.24,전세,202411,23,"20,000",0,1992.0,퇴계로88가길,202412~202612,신규,-,,,다가구,중구,중구 퇴계로88가길,중구 퇴계로88가길,37.563248315538,127.021913552045,신당5동
447,서울특별시 은평구 응암동,5**,8m미만,25.0,월세,202411,23,"1,000",25,1978.0,가좌로10길,202411~202611,신규,-,,,단독,은평구,은평구 가좌로10길,은평구 가좌로10길,37.5924097538278,126.916713736969,응암3동
448,서울특별시 도봉구 도봉동,5**,8m미만,21.0,전세,202411,23,"5,500",0,2017.0,도봉로165길,202411~202611,신규,-,,,다가구,도봉구,도봉구 도봉로165길,도봉구 도봉로165길,37.6772090507704,127.044053773287,도봉1동
449,서울특별시 은평구 녹번동,1**,25m미만,66.4,전세,202411,23,"15,900",0,1991.0,녹번로,-,-,-,,,다가구,은평구,은평구 녹번로,은평구 녹번로,37.6053733567852,126.929076147656,녹번동
450,서울특별시 동대문구 제기동,8**,8m미만,76.69,월세,202411,23,"4,000",140,1977.0,약령서길,202411~202605,신규,-,,,단독,동대문구,동대문구 약령서길,동대문구 약령서길,37.5815678184667,127.036414358209,제기동
451,서울특별시 중랑구 망우동,4**,12m미만,72.0,월세,202411,23,"13,000",10,1976.0,용마공원로18길,202412~202612,신규,-,,,다가구,중랑구,중랑구 용마공원로18길,중랑구 용마공원로18길,37.5908780017482,127.102074002176,망우3동
452,서울특별시 동대문구 제기동,1**,8m미만,14.0,전세,202411,23,"7,000",0,1993.0,안암로26길,202502~202702,신규,-,,,다가구,동대문구,동대문구 안암로26길,동대문구 안암로26길,37.5887580204769,127.03639114003,제기동
453,서울특별시 금천구 가산동,1**,12m미만,17.0,월세,202411,23,"1,000",70,2022.0,남부순환로108길,202411~202611,신규,-,,,단독,금천구,금천구 남부순환로108길,금천구 남부순환로108길,37.4781276881123,126.892325878076,가산동
454,서울특별시 용산구 서계동,2**,8m미만,51.5,전세,202411,23,"13,000",0,1971.0,효창원로104나길,202412~202612,신규,-,,,단독,용산구,용산구 효창원로104나길,용산구 효창원로104나길,37.551529767309,126.965012251026,청파동
455,서울특별시 종로구 숭인동,1**,8m미만,71.01,월세,202411,23,"3,000",78,2004.0,종로63가길,202412~202612,갱신,-,"3,000",68.0,단독,종로구,종로구 종로63가길,종로구 종로63가길,37.5759174715773,127.018848973928,숭인1동
457,서울특별시 중랑구 면목동,1**,8m미만,39.06,전세,202411,23,"10,000",0,1991.0,겸재로15길,202412~202612,신규,-,,,다가구,중랑구,중랑구 겸재로15길,중랑구 겸재로15길,37.5880887955811,127.081450636622,면목2동
458,서울특별시 중랑구 면목동,5**,8m미만,44.22,월세,202411,23,"12,000",30,1991.0,사가정로60길,202412~202612,신규,-,,,다가구,중랑구,중랑구 사가정로60길,중랑구 사가정로60길,37.5796978826051,127.090436144537,면목7동
460,서울특별시 중랑구 면목동,6**,8m미만,28.2,월세,202411,23,"1,000",40,1993.0,면목로43길,202501~202701,신규,-,,,다가구,중랑구,중랑구 면목로43길,중랑구 면목로43길,37.581411563565,127.086602913619,면목3·8동
461,서울특별시 성동구 금호동3가,1**,8m미만,42.31,월세,202411,23,"1,500",65,1997.0,무수막1길,202411~202611,갱신,-,"1,500",60.0,다가구,성동구,성동구 무수막1길,성동구 무수막1길,37.5488556438132,127.024447705846,금호2·3가동
463,서울특별시 강서구 화곡동,2*,8m미만,18.01,월세,202411,23,"1,000",47,1966.0,화곡로42길,202411~202611,신규,-,,,다가구,강서구,강서구 화곡로42길,강서구 화곡로42길,37.546341798265,126.846540930492,화곡본동
464,서울특별시 중랑구 상봉동,2**,8m미만,52.89,월세,202411,23,"3,000",70,1968.0,상봉중앙로3길,202412~202612,신규,-,,,단독,중랑구,중랑구 상봉중앙로3길,중랑구 상봉중앙로3길,37.5999898510459,127.087075141618,상봉1동
465,서울특별시 성북구 종암동,*,8m미만,16.5,월세,202411,23,"1,000",55,2018.0,종암로6길,202412~202512,신규,-,,,단독,성북구,성북구 종암로6길,성북구 종암로6길,37.594934246616,127.037207161357,종암동
466,서울특별시 성동구 행당동,*,8m미만,14.0,월세,202411,23,500,60,1994.0,마조로1길,202411~202611,신규,-,,,단독,성동구,성동구 마조로1길,성동구 마조로1길,37.5602258929649,127.039381410583,사근동
467,서울특별시 성동구 행당동,3*,8m미만,15.0,전세,202411,23,"10,000",0,1989.0,살곶이4길,202412~202612,신규,-,,,다가구,성동구,성동구 살곶이4길,성동구 살곶이4길,37.5563428160975,127.041881433393,사근동
468,서울특별시 강서구 방화동,6**,12m미만,19.22,월세,202411,23,500,43,2020.0,개화동로23길,202411~202611,신규,-,,,다가구,강서구,강서구 개화동로23길,강서구 개화동로23길,37.5662123175107,126.808730195781,방화2동
470,서울특별시 은평구 신사동,*,8m미만,107.76,전세,202411,23,"26,000",0,1995.0,갈현로2가길,202501~202701,신규,-,,,다가구,은평구,은평구 갈현로2가길,은평구 갈현로2가길,37.5995962248928,126.911014389361,신사1동
471,서울특별시 강서구 등촌동,5**,8m미만,20.59,월세,202411,23,"3,000",48,2020.0,등촌로39길,202411~202611,신규,-,,,다가구,강서구,강서구 등촌로39길,강서구 등촌로39길,37.5460432595191,126.8605298109,등촌2동
473,서울특별시 영등포구 대림동,8**,8m미만,20.0,월세,202411,23,500,30,1986.0,디지털로64가길,202411~202611,신규,-,,,다가구,영등포구,영등포구 디지털로64가길,영등포구 디지털로64가길,37.4916576233795,126.904082184266,대림1동
474,서울특별시 영등포구 대림동,6**,12m미만,20.0,전세,202411,23,"11,000",0,2020.0,대림로34자길,-,-,-,,,단독,영등포구,영등포구 대림로34자길,영등포구 대림로34자길,37.5006249815434,126.900918768734,대림3동
475,서울특별시 중랑구 면목동,2**,12m미만,62.4,전세,202411,23,"23,000",0,1992.0,상봉로15길,202502~202702,신규,-,,,다가구,중랑구,중랑구 상봉로15길,중랑구 상봉로15길,37.5917840777269,127.091709640019,면목본동
476,서울특별시 성동구 성수동1가,6**,8m미만,45.0,전세,202411,23,"18,000",0,1990.0,왕십리로4길,202501~202701,신규,-,,,다가구,성동구,성동구 왕십리로4길,성동구 왕십리로4길,37.5461426852693,127.046049040509,성수1가2동
477,서울특별시 성동구 성수동1가,2**,8m미만,25.0,월세,202411,23,100,31,1937.0,성덕정길,202411~202604,신규,-,,,단독,성동구,성동구 성덕정길,성동구 성덕정길,37.5379292554066,127.0521354771,성수2가1동
478,서울특별시 성동구 성수동1가,6**,8m미만,58.46,전세,202411,23,"22,500",0,1998.0,왕십리로6길,202411~202611,갱신,사용,"21,500",0.0,다가구,성동구,성동구 왕십리로6길,성동구 왕십리로6길,37.5456364195128,127.046950036672,성수1가1동
479,서울특별시 광진구 화양동,9*,8m미만,19.83,월세,202411,23,"1,000",61,2016.0,군자로6길,202412~202612,신규,-,,,단독,광진구,광진구 군자로6길,광진구 군자로6길,37.5461640962961,127.072057928344,화양동
480,서울특별시 강북구 우이동,4*,8m미만,52.96,전세,202411,23,"8,500",0,1992.0,삼양로,202412~202612,갱신,-,"7,500",0.0,다가구,강북구,강북구 삼양로,강북구 삼양로,37.6379547525636,127.017129356939,인수동
481,서울특별시 용산구 원효로1가,2*,8m미만,41.79,월세,202411,23,"1,500",50,1995.0,원효로81길,-,-,-,,,다가구,용산구,용산구 원효로81길,용산구 원효로81길,37.5396973535288,126.966734032901,원효로1동
482,서울특별시 동대문구 용두동,3*,8m미만,22.75,월세,202411,23,"6,000",20,1985.0,답십리로6길,202411~202611,신규,-,,,단독,동대문구,동대문구 답십리로6길,동대문구 답십리로6길,37.5770152561269,127.043890528571,용신동
483,서울특별시 마포구 망원동,4**,8m미만,25.0,월세,202411,23,"1,000",49,,포은로,202411~202611,갱신,사용,"1,000",47.0,다가구,마포구,마포구 포은로,마포구 포은로,37.5537840779351,126.905762875832,망원1동
487,서울특별시 마포구 합정동,4**,12m미만,33.79,월세,202411,23,"8,000",26,1993.0,양화로1길,202412~202612,신규,-,,,다가구,마포구,마포구 양화로1길,마포구 양화로1길,37.5510461333811,126.910046739134,합정동
488,서울특별시 은평구 역촌동,8*,8m미만,45.29,월세,202411,23,"12,000",20,1995.0,연서로3길,202412~202612,신규,-,,,다가구,은평구,은평구 연서로3길,은평구 연서로3길,37.6022875971812,126.912979708435,역촌동
489,서울특별시 금천구 독산동,8**,8m미만,30.0,월세,202411,23,"5,000",48,2019.0,문성로5길,202412~202612,신규,-,,,단독,금천구,금천구 문성로5길,금천구 문성로5길,37.478168343661,126.905065045045,독산3동
490,서울특별시 마포구 서교동,3**,25m미만,25.7,전세,202411,23,"12,000",0,2005.0,와우산로,202412~202612,갱신,-,"9,825",0.0,다가구,마포구,마포구 와우산로,마포구 와우산로,37.5524794583271,126.923911028594,서교동
492,서울특별시 은평구 구산동,1*,25m미만,68.41,전세,202411,23,"18,000",0,1983.0,갈현로,202412~202612,신규,-,,,다가구,은평구,은평구 갈현로,은평구 갈현로,37.613490231972,126.911530277114,구산동
493,서울특별시 중랑구 망우동,4**,8m미만,24.0,월세,202411,23,"1,000",40,2014.0,상봉로18길,202412~202612,신규,-,,,단독,중랑구,중랑구 상봉로18길,중랑구 상봉로18길,37.5927952572164,127.094568575913,망우3동
494,서울특별시 마포구 신공덕동,1**,8m미만,49.64,전세,202411,23,"20,000",0,2019.0,임정로15길,202412~202612,신규,-,,,단독,마포구,마포구 임정로15길,마포구 임정로15길,37.543259384313,126.957022739207,공덕동
496,서울특별시 중랑구 중화동,2**,8m미만,34.75,월세,202411,23,"13,000",20,2012.0,동일로124길,202412~202612,신규,-,,,다가구,중랑구,중랑구 동일로124길,중랑구 동일로124길,37.5984407234622,127.082252324,중화1동
497,서울특별시 서대문구 북가좌동,*,8m미만,21.49,월세,202411,23,"5,000",30,2019.0,증가로24나길,-,-,-,,,단독,서대문구,서대문구 증가로24나길,서대문구 증가로24나길,37.5820747094624,126.915531300695,북가좌2동
498,서울특별시 도봉구 쌍문동,3*,8m미만,247.23,월세,202411,23,"1,000",40,1990.0,도당로2길,202411~202611,신규,-,,,다가구,도봉구,도봉구 도당로2길,도봉구 도당로2길,37.6594265806492,127.036977302068,쌍문2동
499,서울특별시 금천구 독산동,9**,8m미만,18.0,월세,202411,23,500,47,2017.0,독산로107길,202411~202511,신규,-,,,단독,금천구,금천구 독산로107길,금천구 독산로107길,37.4777462847451,126.902270042351,독산3동
500,서울특별시 용산구 후암동,1**,8m미만,24.0,전세,202411,23,"12,000",0,1957.0,후암로15길,202412~202612,신규,-,,,단독,용산구,용산구 후암로15길,용산구 후암로15길,37.5486110780575,126.977179431929,후암동
501,서울특별시 서대문구 연희동,1**,8m미만,44.0,월세,202411,23,"3,000",85,1995.0,연희로31길,202412~202512,신규,-,,,다가구,서대문구,서대문구 연희로31길,서대문구 연희로31길,37.5759354386247,126.933916732981,연희동
502,서울특별시 서대문구 옥천동,1**,8m미만,31.11,월세,202411,23,"1,000",40,1990.0,독립문로4길,202412~202612,신규,-,,,다가구,서대문구,서대문구 독립문로4길,서대문구 독립문로4길,37.5696416548234,126.959792403996,천연동
503,서울특별시 구로구 가리봉동,1**,12m미만,40.0,월세,202411,23,"2,000",75,2019.0,우마2길,202412~202512,신규,-,,,단독,구로구,구로구 우마2길,구로구 우마2길,37.4824732444809,126.889969285772,가리봉동
504,서울특별시 도봉구 쌍문동,2**,8m미만,41.12,전세,202411,23,"8,500",0,1995.0,우이천로36길,202501~202701,신규,-,,,다가구,도봉구,도봉구 우이천로36길,도봉구 우이천로36길,37.650512919503,127.023515753606,쌍문1동
505,서울특별시 영등포구 신길동,4**,12m미만,67.0,전세,202411,23,"30,000",0,1993.0,영등포로86길,202412~202612,신규,-,,,단독,영등포구,영등포구 영등포로86길,영등포구 영등포로86길,37.5113823809651,126.922957427465,신길7동
506,서울특별시 영등포구 신길동,1**,8m미만,172.53,전세,202411,23,"18,000",0,1993.0,도신로68길,202411~202611,신규,-,,,다가구,영등포구,영등포구 도신로68길,영등포구 도신로68길,37.5120651451635,126.918111187763,신길1동
507,서울특별시 영등포구 신길동,4*,8m미만,33.56,전세,202411,23,"8,800",0,1992.0,영등포로60길,202412~202612,신규,-,,,다가구,영등포구,영등포구 영등포로60길,영등포구 영등포로60길,37.516919552403,126.915523578497,영등포본동
508,서울특별시 광진구 자양동,5*,8m미만,20.0,월세,202411,22,300,35,1973.0,능동로3마길,202411~202609,신규,-,,,단독,광진구,광진구 능동로3마길,광진구 능동로3마길,37.5344543555537,127.064558948733,자양4동
509,서울특별시 도봉구 창동,5**,25m미만,180.58,월세,202411,22,300,30,1992.0,덕릉로54길,202411~202602,갱신,-,300,25.0,다가구,도봉구,도봉구 덕릉로54길,도봉구 덕릉로54길,37.6371590226958,127.038460993571,창3동
510,서울특별시 도봉구 창동,6**,8m미만,33.01,전세,202411,22,"10,000",0,1993.0,도봉로114길,202412~202612,신규,-,,,다가구,도봉구,도봉구 도봉로114길,도봉구 도봉로114길,37.6475244250548,127.036382739982,창1동
511,서울특별시 도봉구 창동,6**,12m미만,19.8,월세,202411,22,"4,000",25,2018.0,도봉로110나길,202411~202511,신규,-,,,다가구,도봉구,도봉구 도봉로110나길,도봉구 도봉로110나길,37.6484069056588,127.035603908293,창1동
512,서울특별시 동작구 상도동,4**,8m미만,174.9,전세,202411,22,"4,000",0,2016.0,상도로56길,-,-,-,,,단독,동작구,동작구 상도로56길,동작구 상도로56길,37.495970778649,126.952548110281,상도1동
513,서울특별시 동작구 상도동,1**,8m미만,41.13,월세,202411,22,"13,000",22,1991.0,상도로34길,202411~202611,신규,-,,,단독,동작구,동작구 상도로34길,동작구 상도로34길,37.5033238445996,126.94496724824,상도2동
514,서울특별시 동대문구 제기동,1***,8m미만,18.0,월세,202411,22,500,45,1970.0,회기로4길,202411~202511,신규,-,,,다가구,동대문구,동대문구 회기로4길,동대문구 회기로4길,37.5902808055769,127.037200881774,제기동
515,서울특별시 성북구 돈암동,4**,8m미만,20.0,월세,202411,22,500,40,,아리랑로6다길,202411~202511,신규,-,,,다가구,성북구,성북구 아리랑로6다길,성북구 아리랑로6다길,37.5971829389112,127.016050600189,돈암2동
516,서울특별시 도봉구 도봉동,6**,8m미만,26.0,월세,202411,22,300,35,1994.0,도봉로153길,202411~202611,신규,-,,,다가구,도봉구,도봉구 도봉로153길,도봉구 도봉로153길,37.6699482234111,127.0416107068,도봉1동
517,서울특별시 중랑구 망우동,5**,8m미만,39.34,전세,202411,22,"12,000",0,1999.0,상봉로16가길,202412~202612,신규,-,,,다가구,중랑구,중랑구 상봉로16가길,중랑구 상봉로16가길,37.591930698176,127.095646323475,망우3동
518,서울특별시 광진구 구의동,2**,8m미만,20.0,월세,202411,22,"4,000",40,2013.0,아차산로49길,202501~202701,신규,-,,,다가구,광진구,광진구 아차산로49길,광진구 아차산로49길,37.539305838435,127.084222758437,구의1동
519,서울특별시 노원구 공릉동,6**,8m미만,21.0,월세,202411,22,"1,000",39,2014.0,공릉로22길,202501~202701,신규,-,,,단독,노원구,노원구 공릉로22길,노원구 공릉로22길,37.6201386424241,127.078372779456,공릉1동
520,서울특별시 영등포구 대림동,1***,8m미만,40.44,전세,202411,22,"14,000",0,1994.0,대림로31다길,202411~202611,갱신,-,"12,000",0.0,다가구,영등포구,영등포구 대림로31다길,영등포구 대림로31다길,37.4963805796178,126.895139445467,대림3동
521,서울특별시 종로구 숭인동,7*,8m미만,62.64,월세,202411,22,"1,000",110,1991.0,종로63다길,202411~202611,신규,-,,,다가구,종로구,종로구 종로63다길,종로구 종로63다길,37.5740618195623,127.017438694473,숭인1동
523,서울특별시 성북구 하월곡동,2*,8m미만,47.05,월세,202411,22,"1,000",50,1993.0,화랑로9길,202411~202611,신규,-,,,다가구,성북구,성북구 화랑로9길,성북구 화랑로9길,37.6035251745562,127.040812100908,월곡2동
524,서울특별시 중랑구 망우동,5**,8m미만,22.0,전세,202411,22,"9,000",0,2020.0,겸재로61가길,202501~202701,신규,-,,,단독,중랑구,중랑구 겸재로61가길,중랑구 겸재로61가길,37.5912381319148,127.095614073144,망우3동
525,서울특별시 동대문구 회기동,1**,8m미만,18.29,월세,202411,22,"5,000",10,1974.0,회기로10가길,-,-,-,,,다가구,동대문구,동대문구 회기로10가길,동대문구 회기로10가길,37.5905373087939,127.048406919291,회기동
526,서울특별시 영등포구 신길동,5**,8m미만,24.0,월세,202411,22,"4,000",50,2018.0,신풍로25길,202502~202702,신규,-,,,단독,영등포구,영등포구 신풍로25길,영등포구 신풍로25길,37.500750939006,126.919926098489,신길6동
527,서울특별시 영등포구 신길동,2**,8m미만,30.0,월세,202411,22,"1,000",40,1990.0,신길로43길,202312~202512,신규,-,,,다가구,영등포구,영등포구 신길로43길,영등포구 신길로43길,37.5084908314105,126.910138545974,신길3동
528,서울특별시 영등포구 신길동,3***,8m미만,49.37,전세,202411,22,"5,500",0,1994.0,신풍로10길,202411~202611,신규,-,,,다가구,영등포구,영등포구 신풍로10길,영등포구 신풍로10길,37.4995892343508,126.911657142643,신길6동
529,서울특별시 성북구 종암동,3*,12m미만,24.0,월세,202411,22,500,38,1996.0,종암로3길,202411~202511,신규,-,,,다가구,성북구,성북구 종암로3길,성북구 종암로3길,37.5931882764453,127.034636299829,종암동
530,서울특별시 동대문구 휘경동,2**,8m미만,79.4,월세,202411,22,"20,000",40,2012.0,망우로18가길,202412~202612,신규,-,,,다가구,동대문구,동대문구 망우로18가길,동대문구 망우로18가길,37.5876198997486,127.060505748545,휘경2동
531,서울특별시 금천구 시흥동,9**,8m미만,17.0,월세,202411,22,"1,000",55,,시흥대로47길,202411~202511,신규,-,,,다가구,금천구,금천구 시흥대로47길,금천구 시흥대로47길,37.4498957251322,126.900935763877,시흥1동
532,서울특별시 중랑구 면목동,1**,8m미만,29.92,월세,202411,22,"3,500",10,1991.0,봉우재로13길,202411~202611,신규,-,,,다가구,중랑구,중랑구 봉우재로13길,중랑구 봉우재로13길,37.5910197466118,127.077536170437,면목2동
533,서울특별시 중랑구 면목동,3**,12m미만,10.5,월세,202411,22,200,25,1993.0,면목로33길,202411~202611,신규,-,,,다가구,중랑구,중랑구 면목로33길,중랑구 면목로33길,37.5765744367992,127.083293980811,면목4동
535,서울특별시 용산구 청파동3가,1**,8m미만,44.2,전세,202411,22,"9,500",0,2007.0,원효로89길,202411~202611,갱신,-,"12,500",0.0,다가구,용산구,용산구 원효로89길,용산구 원효로89길,37.5408144888993,126.967985668124,원효로1동
536,서울특별시 중랑구 면목동,4**,8m미만,32.0,월세,202411,22,300,35,1990.0,면목로44마길,202411~202611,신규,-,,,다가구,중랑구,중랑구 면목로44마길,중랑구 면목로44마길,37.5823821141987,127.092193643613,면목3·8동
537,서울특별시 중랑구 면목동,5**,12m미만,28.42,전세,202411,22,"4,000",0,1996.0,면목로49길,202501~202701,신규,-,,,다가구,중랑구,중랑구 면목로49길,중랑구 면목로49길,37.582835405693,127.086230388138,면목3·8동
539,서울특별시 용산구 원효로3가,1**,8m미만,29.7,전세,202411,22,"4,500",0,,원효로35가길,202411~202611,신규,-,,,단독,용산구,용산구 원효로35가길,용산구 원효로35가길,37.5341001001201,126.956811330596,원효로2동
540,서울특별시 종로구 옥인동,4*,25m미만,60.2,월세,202411,22,"2,500",40,1998.0,필운대로,202411~202511,신규,-,,,다가구,종로구,종로구 필운대로,종로구 필운대로,37.5812075755788,126.96850851603,청운효자동
541,서울특별시 강북구 미아동,8*,8m미만,33.0,월세,202411,22,"2,000",40,1988.0,오패산로,202411~202611,신규,-,,,단독,강북구,강북구 오패산로,강북구 오패산로,37.6249661273298,127.030209949182,송중동
542,서울특별시 강북구 미아동,7**,8m미만,26.0,월세,202411,22,300,35,1994.0,삼양로54나길,202411~202511,신규,-,,,다가구,강북구,강북구 삼양로54나길,강북구 삼양로54나길,37.6237756405497,127.021658310236,송천동
543,서울특별시 강북구 미아동,7**,8m미만,30.0,월세,202411,22,500,25,1991.0,솔샘로47가길,202411~202611,신규,-,,,다가구,강북구,강북구 솔샘로47가길,강북구 솔샘로47가길,37.6206241799653,127.017807957499,삼양동
544,서울특별시 구로구 고척동,6*,8m미만,17.0,월세,202411,22,"1,000",30,2019.0,안양천로537다길,202411~202605,신규,-,,,단독,구로구,구로구 안양천로537다길,구로구 안양천로537다길,37.5018531875553,126.868472419009,고척1동
545,서울특별시 구로구 고척동,2**,8m미만,33.05,월세,202411,22,500,35,1977.0,경인로35길,202411~202611,신규,-,,,단독,구로구,구로구 경인로35길,구로구 경인로35길,37.4999337386638,126.852568286828,고척2동
546,서울특별시 강북구 미아동,7**,8m미만,35.0,월세,202411,22,"2,000",30,2006.0,삼양로64가길,202411~202611,신규,-,,,다가구,강북구,강북구 삼양로64가길,강북구 삼양로64가길,37.6280875843822,127.0190403357,삼양동
547,서울특별시 용산구 보광동,2**,8m미만,35.68,전세,202411,22,"11,000",0,1990.0,보광로31길,202411~202611,갱신,-,"11,000",0.0,단독,용산구,용산구 보광로31길,용산구 보광로31길,37.5282009103189,126.997249756653,보광동
548,서울특별시 광진구 자양동,2*,8m미만,20.0,월세,202411,22,300,40,1997.0,아차산로22길,202411~202511,신규,-,,,다가구,광진구,광진구 아차산로22길,광진구 아차산로22길,37.5409243695906,127.064188751174,자양4동
549,서울특별시 광진구 자양동,1**,8m미만,28.85,월세,202411,22,"12,000",70,1973.0,동일로4가길,202501~202701,갱신,-,"10,000",50.0,단독,광진구,광진구 동일로4가길,광진구 동일로4가길,37.5357756847726,127.062527576048,자양4동
550,서울특별시 광진구 자양동,6**,8m미만,33.0,월세,202411,22,"1,000",70,1993.0,자양번영로4길,202411~202611,신규,-,,,다가구,광진구,광진구 자양번영로4길,광진구 자양번영로4길,37.5312352794029,127.07714116587,자양2동
551,서울특별시 성동구 마장동,4**,12m미만,40.0,월세,202411,22,"1,000",50,1989.0,청계천로10나길,202411~202611,신규,-,,,다가구,성동구,성동구 청계천로10나길,성동구 청계천로10나길,37.5702223002388,127.035279027562,마장동
552,서울특별시 성동구 마장동,3**,8m미만,33.0,월세,202411,22,"1,000",85,1977.0,마조로14길,202412~202612,신규,-,,,단독,성동구,성동구 마조로14길,성동구 마조로14길,37.5633481185098,127.042743525651,마장동
553,서울특별시 광진구 자양동,2**,8m미만,40.0,월세,202411,22,"14,000",10,1992.0,아차산로41길,202412~202612,신규,-,,,단독,광진구,광진구 아차산로41길,광진구 아차산로41길,37.5384830449932,127.078603484696,자양1동
554,서울특별시 광진구 자양동,2**,12m미만,56.63,월세,202411,22,"5,000",75,2001.0,동일로2길,202412~202612,신규,-,,,다가구,광진구,광진구 동일로2길,광진구 동일로2길,37.5349382828743,127.061521041466,자양4동
555,서울특별시 강서구 방화동,6**,8m미만,30.0,전세,202411,22,"8,000",0,1990.0,초원로16길,202411~202611,신규,-,,,단독,강서구,강서구 초원로16길,강서구 초원로16길,37.5653270771652,126.815170600903,방화1동
556,서울특별시 강서구 공항동,4*,8m미만,40.0,전세,202411,22,"12,000",0,1996.0,공항대로8가길,202412~202412,갱신,-,"12,000",0.0,다가구,강서구,강서구 공항대로8가길,강서구 공항대로8가길,37.5590524880537,126.81341576057,공항동
557,서울특별시 강서구 마곡동,7**,12m미만,50.0,전세,202411,22,"29,500",0,2018.0,마곡중앙5로,-,-,-,,,다가구,강서구,강서구 마곡중앙5로,강서구 마곡중앙5로,37.5671194859703,126.8222505623,방화1동
558,서울특별시 성동구 금호동3가,1***,8m미만,35.38,전세,202411,22,"13,000",0,1991.0,금호산10길,202411~202504,신규,-,,,다가구,성동구,성동구 금호산10길,성동구 금호산10길,37.5511653259534,127.02031413456,금호2·3가동
559,서울특별시 강서구 화곡동,3**,8m미만,35.0,월세,202411,22,"1,000",40,1992.0,가로공원로78길,202412~202612,신규,-,,,단독,강서구,강서구 가로공원로78길,강서구 가로공원로78길,37.5350807351448,126.838225182837,화곡1동
560,서울특별시 강서구 화곡동,9**,12m미만,45.09,월세,202411,22,500,53,1996.0,까치산로24길,202411~202611,갱신,-,500,43.0,다가구,강서구,강서구 까치산로24길,강서구 까치산로24길,37.5485534445708,126.853683421623,화곡6동
561,서울특별시 강서구 등촌동,5**,8m미만,48.83,전세,202411,22,"13,000",0,1991.0,등촌로53길,202412~202612,신규,-,,,다가구,강서구,강서구 등촌로53길,강서구 등촌로53길,37.5496694768473,126.861422825662,등촌2동
562,서울특별시 양천구 신월동,1**,8m미만,52.58,전세,202411,22,"8,500",0,1991.0,남부순환로50길,202412~202612,갱신,-,"8,000",0.0,다가구,양천구,양천구 남부순환로50길,양천구 남부순환로50길,37.5329881487162,126.8278280162,신월3동
563,서울특별시 양천구 목동,7**,8m미만,51.92,전세,202411,22,"13,000",0,1997.0,목동중앙남로13길,202412~202612,신규,-,,,다가구,양천구,양천구 목동중앙남로13길,양천구 목동중앙남로13길,37.5402739205859,126.86465685406,목3동
564,서울특별시 성동구 성수동2가,6**,8m미만,34.58,전세,202411,22,"10,000",0,1990.0,둘레길,202412~202612,신규,-,,,단독,성동구,성동구 둘레길,성동구 둘레길,37.5357793597485,127.05197331643,성수2가1동
565,서울특별시 성북구 동선동2가,3**,12m미만,29.0,월세,202411,22,"5,000",30,1993.0,보문로30가길,202501~202701,신규,-,,,다가구,성북구,성북구 보문로30가길,성북구 보문로30가길,37.5892342428292,127.020998954862,동선동
566,서울특별시 동작구 노량진동,1**,8m미만,16.5,월세,202411,22,500,53,1991.0,노량진로14길,202411~202511,신규,-,,,다가구,동작구,동작구 노량진로14길,동작구 노량진로14길,37.5124454615848,126.942558468784,노량진1동
567,서울특별시 양천구 신정동,1***,8m미만,20.0,월세,202411,22,500,33,1997.0,목동로9길,202411~202611,신규,-,,,다가구,양천구,양천구 목동로9길,양천구 목동로9길,37.5227158788272,126.862033674472,신정4동
568,서울특별시 양천구 신정동,9**,8m미만,68.03,전세,202411,22,"18,000",0,2014.0,중앙로52길,202411~202611,갱신,-,"17,000",0.0,다가구,양천구,양천구 중앙로52길,양천구 중앙로52길,37.5258259521354,126.8545946124,신정4동
569,서울특별시 양천구 신정동,9**,12m미만,67.0,전세,202411,22,"24,100",0,1992.0,목동로19길,202501~202701,신규,-,,,다가구,양천구,양천구 목동로19길,양천구 목동로19길,37.5248308374678,126.861911222653,신정4동
571,서울특별시 동대문구 용두동,7**,12m미만,19.0,전세,202411,22,"6,000",0,2002.0,무학로47길,202412~202612,신규,-,,,다가구,동대문구,동대문구 무학로47길,동대문구 무학로47길,37.580862143219,127.028253027751,용신동
572,서울특별시 마포구 성산동,7*,8m미만,43.83,월세,202411,22,"4,000",70,1997.0,성산로6길,-,-,-,,,다가구,마포구,마포구 성산로6길,마포구 성산로6길,37.5640081071592,126.910825497395,성산1동
573,서울특별시 동작구 상도동,2**,8m미만,29.0,월세,202411,22,"3,000",35,1990.0,성대로17길,202412~202612,신규,-,,,다가구,동작구,동작구 성대로17길,동작구 성대로17길,37.4993329890826,126.934977555505,상도4동
574,서울특별시 성북구 삼선동1가,1**,8m미만,40.0,월세,202411,22,"1,000",80,1996.0,삼선교로6길,202501~202701,신규,-,,,다가구,성북구,성북구 삼선교로6길,성북구 삼선교로6길,37.5866635505558,127.007305672663,삼선동
576,서울특별시 중랑구 중화동,3**,8m미만,42.5,월세,202411,22,"1,000",30,1978.0,중랑천로29길,202411~202611,신규,-,,,단독,중랑구,중랑구 중랑천로29길,중랑구 중랑천로29길,37.5969271232454,127.071054435806,중화2동
577,서울특별시 마포구 대흥동,2*,8m미만,19.0,월세,202411,22,"1,000",60,1991.0,고산18길,202411~202611,신규,-,,,단독,마포구,마포구 고산18길,마포구 고산18길,37.5533836444913,126.945282418343,대흥동
578,서울특별시 중랑구 중화동,3**,8m미만,18.39,월세,202411,22,"1,000",55,2017.0,봉화산로2길,202411~202611,신규,-,,,다가구,중랑구,중랑구 봉화산로2길,중랑구 봉화산로2길,37.5999080394949,127.074721398198,중화2동
579,서울특별시 마포구 도화동,2**,12m미만,24.98,월세,202411,22,"1,500",55,1983.0,도화4길,202412~202612,신규,-,,,다가구,마포구,마포구 도화4길,마포구 도화4길,37.5395804821977,126.951809570366,도화동
580,서울특별시 서대문구 북가좌동,3**,8m미만,44.0,전세,202411,22,"10,000",0,1998.0,증가로29길,202411~202611,신규,-,,,다가구,서대문구,서대문구 증가로29길,서대문구 증가로29길,37.58196435909,126.912105020193,북가좌2동
581,서울특별시 서대문구 북가좌동,3**,8m미만,61.69,월세,202411,22,"2,000",40,1975.0,거북골로18가길,202411~202611,신규,-,,,단독,서대문구,서대문구 거북골로18가길,서대문구 거북골로18가길,37.5774570452835,126.91113832647,북가좌2동
582,서울특별시 서대문구 북가좌동,8*,8m미만,33.2,전세,202411,22,"7,500",0,1997.0,거북골로18나길,202411~202611,갱신,-,"7,000",0.0,다가구,서대문구,서대문구 거북골로18나길,서대문구 거북골로18나길,37.5782236864811,126.912323833016,북가좌2동
583,서울특별시 광진구 군자동,1**,8m미만,36.0,전세,202411,22,"9,000",0,1988.0,면목로1길,202411~202611,신규,-,,,단독,광진구,광진구 면목로1길,광진구 면목로1길,37.5549896491915,127.074517292085,군자동
584,서울특별시 강북구 수유동,4**,8m미만,23.1,월세,202411,22,"5,000",30,2020.0,인수봉로44길,202412~202612,신규,-,,,다가구,강북구,강북구 인수봉로44길,강북구 인수봉로44길,37.633164008853,127.014632114078,수유1동
585,서울특별시 광진구 군자동,3**,8m미만,17.52,전세,202411,22,"6,000",0,1978.0,동일로40길,-,-,-,,,단독,광진구,광진구 동일로40길,광진구 동일로40길,37.5518259975667,127.070369822005,군자동
586,서울특별시 광진구 중곡동,3*,8m미만,39.33,월세,202411,22,"5,000",40,2007.0,능동로50길,202411~202611,갱신,-,"5,000",30.0,다가구,광진구,광진구 능동로50길,광진구 능동로50길,37.5636011651294,127.085094466856,중곡3동
587,서울특별시 광진구 능동,2**,8m미만,23.14,월세,202411,22,"1,000",65,2012.0,천호대로114길,202501~202701,신규,-,,,다가구,광진구,광진구 천호대로114길,광진구 천호대로114길,37.554206020479,127.082168599696,능동
588,서울특별시 은평구 대조동,2**,8m미만,53.73,전세,202411,22,"17,000",0,1992.0,역말로9가길,202412~202612,신규,-,,,다가구,은평구,은평구 역말로9가길,은평구 역말로9가길,37.6128493917173,126.921106171955,대조동
589,서울특별시 은평구 대조동,*,8m미만,77.35,전세,202411,22,"18,000",0,1997.0,통일로69길,202502~202702,신규,-,,,다가구,은평구,은평구 통일로69길,은평구 통일로69길,37.6109923449776,126.926664883934,대조동
590,서울특별시 은평구 불광동,6**,8m미만,62.18,전세,202411,22,"15,000",0,2009.0,진흥로19길,202412~202612,신규,-,,,단독,은평구,은평구 진흥로19길,은평구 진흥로19길,37.6117083129577,126.940329956475,불광1동
591,서울특별시 도봉구 방학동,6**,8m미만,31.63,전세,202411,22,"12,000",0,1993.0,도당로13나길,202412~202612,신규,-,,,다가구,도봉구,도봉구 도당로13나길,도봉구 도당로13나길,37.6675626503331,127.037734391592,방학2동
592,서울특별시 도봉구 방학동,6**,8m미만,35.5,전세,202411,22,"8,000",0,1989.0,도당로31길,202412~202612,신규,-,,,단독,도봉구,도봉구 도당로31길,도봉구 도당로31길,37.669201371582,127.042701357126,방학1동
593,서울특별시 중랑구 묵동,2**,8m미만,20.0,월세,202411,22,"1,000",40,2014.0,동일로163길,202412~202512,갱신,-,"5,000",0.0,다가구,중랑구,중랑구 동일로163길,중랑구 동일로163길,37.611810979467,127.075202649683,묵2동
594,서울특별시 강동구 암사동,4**,12m미만,33.69,월세,202411,22,20,30,1990.0,상암로15길,202411~202505,신규,-,,,단독,강동구,강동구 상암로15길,강동구 상암로15길,37.5497341766613,127.131235964519,암사1동
595,서울특별시 송파구 가락동,1**,12m미만,46.92,전세,202411,22,"9,000",0,1996.0,문정로13길,202501~202701,갱신,-,"7,000",0.0,다가구,송파구,송파구 문정로13길,송파구 문정로13길,37.4943450584252,127.135398180492,가락2동
596,서울특별시 강동구 길동,9*,8m미만,40.0,전세,202411,22,"10,500",0,1993.0,천중로55길,202308~202508,갱신,-,"9,000",0.0,단독,강동구,강동구 천중로55길,강동구 천중로55길,37.5421168025114,127.146679214447,길동
597,서울특별시 관악구 남현동,1***,8m미만,92.36,월세,202411,22,"15,000",40,1996.0,남현1가길,202412~202612,신규,-,,,다가구,관악구,관악구 남현1가길,관악구 남현1가길,37.4747408089475,126.977713243527,남현동
598,서울특별시 송파구 마천동,3**,8m미만,30.54,전세,202411,22,"7,500",0,1990.0,마천로61바길,202501~202701,신규,-,,,다가구,송파구,송파구 마천로61바길,송파구 마천로61바길,37.4954196514487,127.153413955726,마천1동
601,서울특별시 관악구 봉천동,6**,8m미만,45.0,전세,202411,22,"25,000",0,1980.0,은천로15길,202501~202701,신규,-,,,다가구,관악구,관악구 은천로15길,관악구 은천로15길,37.487287649318,126.944035215075,은천동
602,서울특별시 서초구 서초동,1***,8m미만,33.69,월세,202411,22,"12,000",20,1996.0,명달로24길,202412~202612,신규,-,,,다가구,서초구,서초구 명달로24길,서초구 명달로24길,37.487130734781,127.005938900175,서초3동
603,서울특별시 서초구 반포동,1**,8m미만,38.0,전세,202411,22,"19,000",0,1993.0,서래로5길,202412~202612,신규,-,,,다가구,서초구,서초구 서래로5길,서초구 서래로5길,37.497908365823,126.995215650839,반포4동
604,서울특별시 강동구 암사동,4**,8m미만,23.0,월세,202411,22,"10,000",25,2023.0,상암로23길,202411~202509,신규,-,,,단독,강동구,강동구 상암로23길,강동구 상암로23길,37.548746579068,127.135083137986,암사1동
605,서울특별시 강동구 암사동,4**,8m미만,48.51,월세,202411,22,"12,000",35,1986.0,고덕로20나길,202501~202701,신규,-,,,단독,강동구,강동구 고덕로20나길,강동구 고덕로20나길,37.5534714333273,127.131794449176,암사1동
606,서울특별시 송파구 방이동,1**,25m미만,19.83,월세,202411,22,500,53,1999.0,위례성대로12길,202411~202611,신규,-,,,다가구,송파구,송파구 위례성대로12길,송파구 위례성대로12길,37.5121467610035,127.122082584917,방이1동
607,서울특별시 관악구 봉천동,1***,12m미만,21.12,월세,202411,22,"10,000",13,2017.0,청룡길,202412~202612,신규,-,,,단독,관악구,관악구 청룡길,관악구 청룡길,37.4793555838979,126.945891107226,청룡동
608,서울특별시 관악구 봉천동,1***,8m미만,33.0,전세,202411,22,"10,000",0,1997.0,쑥고개로,202412~202612,신규,-,,,다가구,관악구,관악구 쑥고개로,관악구 쑥고개로,37.4795053124814,126.944107950277,청룡동
609,서울특별시 서초구 신원동,2*,8m미만,20.59,전세,202411,22,"20,000",0,2017.0,새정3길,-,-,-,,,단독,서초구,서초구 새정3길,서초구 새정3길,37.4347112444963,127.069411803774,내곡동
612,서울특별시 송파구 풍납동,4**,8m미만,66.6,월세,202411,22,"1,000",35,1992.0,올림픽로57길,202412~202612,신규,-,,,다가구,송파구,송파구 올림픽로57길,송파구 올림픽로57길,37.5345796686967,127.121178935795,풍납1동
613,서울특별시 서초구 방배동,4**,8m미만,57.54,전세,202411,22,"13,000",0,1997.0,방배천로18길,202412~202612,신규,-,,,다가구,서초구,서초구 방배천로18길,서초구 방배천로18길,37.4827099092211,126.984039835333,방배2동
614,서울특별시 강동구 명일동,3**,12m미만,53.89,월세,202411,22,"10,000",100,2022.0,양재대로143길,202501~202701,신규,-,,,다가구,강동구,강동구 양재대로143길,강동구 양재대로143길,37.5516047819898,127.142395406225,명일1동
615,서울특별시 관악구 신림동,1***,12m미만,25.0,월세,202411,22,"1,000",55,2015.0,남부순환로168길,202411~202611,신규,-,,,다가구,관악구,관악구 남부순환로168길,관악구 남부순환로168길,37.4808906314567,126.924386967507,신원동
617,서울특별시 강남구 역삼동,7**,8m미만,27.24,월세,202411,22,"1,000",70,1994.0,역삼로33길,202411~202611,신규,-,,,다가구,강남구,강남구 역삼로33길,강남구 역삼로33길,37.497958530317,127.041605668978,역삼2동
618,서울특별시 강남구 역삼동,7**,25m미만,44.01,월세,202411,22,"3,000",47,1996.0,도곡로57길,202411~202511,신규,-,,,다가구,강남구,강남구 도곡로57길,강남구 도곡로57길,37.4964061182379,127.050976773231,역삼2동
620,서울특별시 강동구 성내동,5**,25m미만,67.71,월세,202411,22,"2,000",100,1987.0,풍성로,202501~202701,신규,-,,,다가구,강동구,강동구 풍성로,강동구 풍성로,37.529445715227,127.134304580899,성내3동
622,서울특별시 강남구 논현동,2**,12m미만,24.46,전세,202411,22,"17,000",0,1994.0,선릉로111길,202412~202612,신규,-,,,다가구,강남구,강남구 선릉로111길,강남구 선릉로111길,37.5104691445139,127.041680136003,논현2동
623,서울특별시 관악구 신림동,3**,8m미만,74.45,전세,202411,22,"13,000",0,1974.0,양지2길,202501~202701,신규,-,,,단독,관악구,관악구 양지2길,관악구 양지2길,37.4707550755886,126.931930984106,삼성동
624,서울특별시 강동구 암사동,4**,12m미만,20.0,월세,202411,22,"1,000",50,2011.0,고덕로20길,202412~202612,신규,-,,,다가구,강동구,강동구 고덕로20길,강동구 고덕로20길,37.5533059410879,127.13361959052,암사1동
625,서울특별시 강동구 둔촌동,6*,8m미만,64.2,전세,202411,22,"20,000",0,1988.0,천호대로188길,-,-,-,,,단독,강동구,강동구 천호대로188길,강동구 천호대로188길,37.5327715417017,127.143231215197,둔촌2동
628,서울특별시 강동구 천호동,1**,8m미만,69.4,월세,202411,22,300,35,1989.0,성안로27길,202411~202611,신규,-,,,단독,강동구,강동구 성안로27길,강동구 성안로27길,37.5396374157081,127.134272281227,천호3동
631,서울특별시 관악구 신림동,1***,8m미만,47.04,전세,202411,22,"14,000",0,1998.0,남부순환로152가길,202501~202701,신규,-,,,다가구,관악구,관악구 남부순환로152가길,관악구 남부순환로152가길,37.4817967261218,126.917061209851,미성동
632,서울특별시 동작구 사당동,1***,12m미만,20.0,월세,202411,22,"1,000",58,1993.0,사당로22길,202411~202611,신규,-,,,다가구,동작구,동작구 사당로22길,동작구 사당로22길,37.4813362850403,126.976760776846,사당1동
633,서울특별시 동작구 사당동,1***,8m미만,29.5,월세,202411,22,"1,000",60,1989.0,동작대로19길,202411~202611,신규,-,,,단독,동작구,동작구 동작대로19길,동작구 동작대로19길,37.4834842750455,126.98013645028,사당1동
634,서울특별시 관악구 봉천동,5*,8m미만,17.0,월세,202411,22,"3,000",38,2018.0,중앙길,202411~202611,신규,-,,,단독,관악구,관악구 중앙길,관악구 중앙길,37.4851985307347,126.951044797437,중앙동
639,서울특별시 송파구 잠실동,2**,8m미만,40.99,월세,202411,21,"5,000",63,1996.0,백제고분로7길,202411~202611,갱신,-,"5,000",59.0,다가구,송파구,송파구 백제고분로7길,송파구 백제고분로7길,37.5107723349237,127.082219478596,잠실본동
640,서울특별시 관악구 신림동,1***,8m미만,29.7,월세,202411,21,"10,000",50,2021.0,봉천로4길,202411~202605,신규,-,,,단독,관악구,관악구 봉천로4길,관악구 봉천로4길,37.4883670387892,126.924138475855,신림동
641,서울특별시 송파구 풍납동,2**,8m미만,52.91,월세,202411,21,"13,000",45,1989.0,토성로6길,202501~202701,신규,-,,,단독,송파구,송파구 토성로6길,송파구 토성로6길,37.5301810073774,127.112597648637,풍납2동
642,서울특별시 서초구 잠원동,3*,12m미만,171.77,월세,202411,21,"1,000",84,1997.0,강남대로95길,202411~202511,신규,-,,,다가구,서초구,서초구 강남대로95길,서초구 강남대로95길,37.5130901476182,127.017761111798,잠원동
643,서울특별시 서초구 반포동,7**,12m미만,43.97,월세,202411,21,"1,000",110,1997.0,주흥13길,202412~202512,신규,-,,,다가구,서초구,서초구 주흥13길,서초구 주흥13길,37.5082198000345,127.018142355731,반포1동
644,서울특별시 관악구 봉천동,1***,8m미만,18.0,월세,202411,21,200,45,1992.0,관악로14길,202411~202611,신규,-,,,단독,관악구,관악구 관악로14길,관악구 관악로14길,37.4785764691951,126.95558746457,낙성대동
645,서울특별시 관악구 봉천동,1***,8m미만,18.0,월세,202411,21,"5,000",45,1997.0,남부순환로244길,202412~202612,신규,-,,,다가구,관악구,관악구 남부순환로244길,관악구 남부순환로244길,37.4764223247178,126.963154544251,인헌동
646,서울특별시 강동구 고덕동,1**,8m미만,27.2,월세,202411,21,"6,500",10,1988.0,상일로21길,202412~202612,갱신,-,"1,000",40.0,다가구,강동구,강동구 상일로21길,강동구 상일로21길,37.5596650732527,127.169810626823,고덕2동
647,서울특별시 서초구 양재동,3**,8m미만,34.98,월세,202411,21,"10,000",48,1996.0,강남대로8길,202412~202612,갱신,-,"10,000",44.0,다가구,서초구,서초구 강남대로8길,서초구 강남대로8길,37.4691772345931,127.043410046439,양재2동
648,서울특별시 강동구 길동,3**,8m미만,33.0,월세,202411,21,"1,000",45,1991.0,천중로56길,202411~202611,신규,-,,,단독,강동구,강동구 천중로56길,강동구 천중로56길,37.5391444530476,127.145768316011,길동
650,서울특별시 강남구 역삼동,7**,25m미만,29.96,월세,202411,21,"5,000",60,2001.0,도곡로37길,202412~202612,갱신,사용,"5,000",46.0,다가구,강남구,강남구 도곡로37길,강남구 도곡로37길,37.495567642877,127.044983373584,역삼2동
651,서울특별시 서초구 방배동,4**,8m미만,48.3,전세,202411,21,"35,000",0,2012.0,방배천로8길,202412~202612,신규,-,,,다가구,서초구,서초구 방배천로8길,서초구 방배천로8길,37.4805062965448,126.983928148281,방배2동
652,서울특별시 관악구 봉천동,1**,12m미만,35.0,월세,202411,21,"7,000",30,1997.0,인헌16길,202412~202612,신규,-,,,단독,관악구,관악구 인헌16길,관악구 인헌16길,37.4694875519142,126.965655308201,인헌동
653,서울특별시 서초구 방배동,4**,8m미만,51.76,전세,202411,21,"20,000",0,1986.0,청두곶8길,202412~202612,갱신,-,"18,000",30.0,단독,서초구,서초구 청두곶8길,서초구 청두곶8길,37.4808440795949,126.986794731106,방배2동
654,서울특별시 송파구 석촌동,1**,8m미만,57.47,전세,202411,21,"32,000",0,2003.0,백제고분로37가길,202411~202611,신규,-,,,다가구,송파구,송파구 백제고분로37가길,송파구 백제고분로37가길,37.5056201452704,127.10309342622,석촌동
655,서울특별시 서초구 방배동,8**,8m미만,49.5,월세,202411,21,"8,000",50,1999.0,방배천로34길,202307~202507,갱신,-,"5,000",50.0,다가구,서초구,서초구 방배천로34길,서초구 방배천로34길,37.4880274743053,126.987764864597,방배4동
656,서울특별시 송파구 잠실동,3**,8m미만,31.57,월세,202411,21,"3,000",100,1996.0,백제고분로12길,-,-,-,,,단독,송파구,송파구 백제고분로12길,송파구 백제고분로12길,37.5048732529988,127.080686313264,잠실본동
657,서울특별시 강동구 둔촌동,4*,8m미만,35.98,전세,202411,21,"13,000",0,1989.0,명일로10길,202412~202612,신규,-,,,단독,강동구,강동구 명일로10길,강동구 명일로10길,37.5317618764746,127.144712742857,둔촌2동
658,서울특별시 동작구 대방동,3**,12m미만,43.0,월세,202411,21,"1,000",65,1991.0,대방동길,202411~202511,신규,-,,,다가구,동작구,동작구 대방동길,동작구 대방동길,37.5028061372957,126.925725390804,대방동
659,서울특별시 송파구 삼전동,1*,8m미만,52.43,월세,202411,21,"7,400",7,1997.0,백제고분로21길,202412~202612,갱신,-,"7,400",5.0,다가구,송파구,송파구 백제고분로21길,송파구 백제고분로21길,37.5057141416048,127.090534566068,삼전동
660,서울특별시 강동구 천호동,3**,8m미만,42.77,전세,202411,21,"15,000",0,1996.0,올림픽로87길,202412~202612,신규,-,,,다가구,강동구,강동구 올림픽로87길,강동구 올림픽로87길,37.5465179803321,127.125511343678,천호2동
661,서울특별시 송파구 삼전동,1**,8m미만,40.0,전세,202411,21,"20,000",0,1996.0,백제고분로31길,202412~202512,갱신,-,"20,000",4.0,다가구,송파구,송파구 백제고분로31길,송파구 백제고분로31길,37.504645082335,127.095588127132,삼전동
662,서울특별시 강동구 천호동,5**,8m미만,15.0,월세,202411,21,"10,000",10,2018.0,구천면로28길,202501~202701,신규,-,,,다가구,강동구,강동구 구천면로28길,강동구 구천면로28길,37.5401480992294,127.129021558948,천호3동
663,서울특별시 송파구 삼전동,5*,8m미만,22.4,전세,202411,21,"13,000",0,1999.0,삼학사로3길,202412~202612,신규,-,,,단독,송파구,송파구 삼학사로3길,송파구 삼학사로3길,37.4996011400518,127.0932502547,삼전동
664,서울특별시 송파구 삼전동,1*,8m미만,38.27,월세,202411,21,"13,000",20,1996.0,삼전로10길,202412~202612,신규,-,,,다가구,송파구,송파구 삼전로10길,송파구 삼전로10길,37.50496277943,127.093217112891,삼전동
665,서울특별시 관악구 봉천동,4*,8m미만,19.7,월세,202411,21,"3,000",40,2020.0,은천로35다길,202412~202612,신규,-,,,다가구,관악구,관악구 은천로35다길,관악구 은천로35다길,37.4873802232592,126.952794950214,성현동
666,서울특별시 서초구 방배동,2***,12m미만,63.0,월세,202411,21,"25,000",28,2018.0,전원말9길,202501~202701,신규,-,,,다가구,서초구,서초구 전원말9길,서초구 전원말9길,37.466847299865,126.990090717032,방배2동
667,서울특별시 관악구 봉천동,9**,8m미만,14.59,월세,202411,21,"2,500",52,,봉천로13길,202411~202505,신규,-,,,다가구,관악구,관악구 봉천로13길,관악구 봉천로13길,37.4906523647883,126.931530963399,보라매동
668,서울특별시 강남구 논현동,1**,8m미만,49.02,월세,202411,21,"3,000",120,1996.0,학동로12길,202411~202511,신규,-,,,다가구,강남구,강남구 학동로12길,강남구 학동로12길,37.5109168705972,127.026272282355,논현1동
669,서울특별시 강동구 천호동,4**,8m미만,10.0,월세,202411,21,500,35,1975.0,구천면로14길,202411~202611,신규,-,,,단독,강동구,강동구 구천면로14길,강동구 구천면로14길,37.5406954341669,127.121131352199,천호2동
670,서울특별시 동작구 신대방동,3**,8m미만,26.55,전세,202411,21,"14,000",0,1991.0,국사봉2나길,-,-,-,,,다가구,동작구,동작구 국사봉2나길,동작구 국사봉2나길,37.4969380170472,126.929317466974,신대방2동
671,서울특별시 강동구 천호동,4**,8m미만,36.0,전세,202411,21,"15,000",0,1991.0,구천면로16길,202501~202701,신규,-,,,단독,강동구,강동구 구천면로16길,강동구 구천면로16길,37.5409008939266,127.121801087692,천호2동
672,서울특별시 강남구 개포동,1***,8m미만,40.0,전세,202411,21,"14,330",0,1996.0,개포로17길,202411~202611,갱신,-,"13,650",0.0,다가구,강남구,강남구 개포로17길,강남구 개포로17길,37.4798545267632,127.046580863676,개포4동
